번호,사업장명,소재지전체주소,도로명전체주소,도로명우편번호,자연환경,숙소환경,테마,지역코드,상세코드,위도,경도,COL1,COL2
1,늘예솔 글램핑,경상남도 거창군 북상면 월성리 941-4번지,경상남도 거창군 북상면 덕유월성로 1384-5,50100,river,glamping,couple,17,1703,35.76419,127.7368363,,
2,아쿠아마린 글램핑,경기도 포천시 이동면 도평리 333번지,경기도 포천시 이동면 성장로1289번길 204,11110,sea,easycamping,kids,3,302,38.0757063,127.4032977,,
3,부에노스아이레스,경기도 가평군 가평읍 복장리 580-3번지,경기도 가평군 가평읍 상지로 949,12430,lake,caravan,pet,3,301,37.740356,127.4999057,,
4,오페라캠핑장,강원도 홍천군 내촌면 화상대리 산 375-2,강원도 홍천군 내촌면 아홉사리로 104-15,25163,river,glamping,couple,4,414,37.8018189,128.0035294,,
5,사계절 야영장,충청북도 영동군 상촌면 대해리 1083-1,충청북도 영동군 상촌면 물한계곡로 700,29126,sea,easycamping,kids,8,804,36.101298,127.8848185,,
6,해자연캠핑장,경기도 남양주시 오남읍 팔현리 9-22,경기도 남양주시 오남읍 팔현로175번길 310-60,12038,lake,caravan,pet,3,306,37.7009065,127.2628633,,
7,글램핑스테이션,충청북도 괴산군 연풍면 갈금리 255-19번지,충청북도 괴산군 연풍면 연풍로 823-9,28014,river,glamping,couple,8,801,36.7816546,127.9512861,,
8,청포대휴야영장,충청남도 태안군 남면 원청리 512-142,충청남도 태안군 남면 청포대길 63-6,32157,sea,easycamping,kids,7,702,36.6393956,126.3021005,,
9,옥산 호수정원(진달래 관광농원),충청남도 부여군 옥산면 봉산리 171-3,충청남도 부여군 옥산면 봉산로56번길 56,33204,lake,caravan,pet,7,707,36.1980162,126.7234974,,
10,휴림,경기도 여주시 산북면 주어리 368-1,경기도 여주시 산북면 주어로 204,12600,mountain,camping,family,3,318,37.4016889,127.442999,,
11,그라티아 글램핑,경기도 가평군 가평읍 두밀리 216,경기도 가평군 가평읍 태봉두밀로 421-24,12425,river,glamping,couple,3,301,37.8152713,127.4547979,,
12,백운산캠핑장,경상남도 함양군 백전면 백운리 120-2번지,경상남도 함양군 백전면 함양남서로 2755,50026,sea,easycamping,kids,17,1717,35.5884737,127.6371657,,
13,도봉야영장,경기도 의정부시 호원동 163,경기도 의정부시 창포원로 81 (호원동),11716,lake,caravan,pet,3,322,37.6951064,127.046636,,
14,에제르파크,인천광역시 남동구 장수동 141-7,인천광역시 남동구 만의골로 155 (장수동),21533,river,glamping,couple,2,204,37.4547802,126.7457475,,
15,와우파크,강원도 강릉시 사천면 사천진리 242-1번지,강원도 강릉시 사천면 공회당길 7-13,25435,lake,caravan,pet,4,401,37.832069,128.8714898,,
16,팜스토리,경상북도 청도군 운문면 봉하리 817번지 (817-1번지),경상북도 청도군 운문면 운북로 443-18,38365,river,glamping,couple,16,1619,35.8041233,128.9763417,,
17,라무 키즈 글램핑,경기도 가평군 북면 도대리 324-10,경기도 가평군 북면 가화로 2372-42,12401,lake,caravan,pet,3,301,37.9542988,127.477874,,
18,솔향기캠핑장,충청남도 태안군 소원면 모항리 442-3,충청남도 태안군 소원면 모항항길 29,32123,river,glamping,couple,7,702,36.77741217,126.1429476,,
19,충주 커피박물관 관광농원 야영장,충청북도 충주시 살미면 내사리 산 20-2,충청북도 충주시 살미면 월악로 432,27492,sea,easycamping,kids,8,810,36.9044212,128.0144229,,
20,전원일기 오토캠핑장,경상북도 경주시 산내면 대현리 2372,경상북도 경주시 산내면 문복로 578,38187,lake,caravan,pet,16,1602,35.6842054,129.0502907,,
21,전월산 국민여가캠핑장,충청남도 연기군 남면 월산리 320-1,세종특별자치시 연기면 갈매로 169,30129,mountain,camping,family,6,601,36.4800668,127.269419,,
22,트리앤캠프스토리,강원도 양구군 양구읍 군량리 450,강원도 양구군 양구읍 성곡로 849,24514,river,glamping,couple,4,407,38.1602934,127.9637103,,
23,청포대 일등캠핑장,충청남도 태안군 남면 양잠리 1230-3,충청남도 태안군 남면 청포대길 125,32155,sea,easycamping,kids,7,702,36.6442404,126.3004253,,
24,한자루체험농원(휴앤아크),강원도 인제군 기린면 방동리 68-3,강원도 인제군 기린면 방동약수로 68,24656,lake,caravan,pet,4,409,37.9126207,128.4151868,,
25,산들내캠핑장,전라북도 정읍시 산외면 정량리 85-1 인문학뇌만들기 문화공간 창,전라북도 정읍시 산외면 종운로 260,56123,mountain,camping,family,9,912,35.606664,127.06242,,
26,솔라캠프,경상북도 안동시 와룡면 가구리 377-1,경상북도 안동시 와룡면 농암로 101-44,36611,sea,easycamping,kids,16,1611,36.6197305,128.7775784,,
27,산책,경기도 가평군 북면 화악리 754-6번지,경기도 가평군 북면 화악산로 943-40,12402,lake,caravan,pet,3,301,37.9375355,127.5398139,,
28,젤루느린 달팽이,경상북도 문경시 가은읍 완장리 460번지,경상북도 문경시 가은읍 대야로 1290,36993,mountain,camping,family,16,1607,36.676402,127.95985,,
29,아이뜰관광농원,충청북도 괴산군 장연면 방곡리 607-4번지 아이뜰관광농원,충청북도 괴산군 장연면 충민로 1183,28008,river,glamping,couple,8,801,36.844573,127.9023632,,
30,청도 어울림 글램핑 타운,경상북도 청도군 매전면 관하리 420,경상북도 청도군 매전면 관하실길 28-42,38352,sea,easycamping,kids,16,1619,35.7089549,128.8181107,,
31,학암포나로글램핑캠핑장,충청남도 태안군 원북면 방갈리 515-173,충청남도 태안군 원북면 옥파로 1153,32105,lake,caravan,pet,7,702,36.8979606,126.2048652,,
32,내리계곡 솔바람 캠핑장,강원도 영월군 김삿갓면 내리 386-2번지,강원도 영월군 김삿갓면 내리계곡로 1039-14,26247,mountain,camping,family,4,420,37.0779437,128.7082094,,
33,별곰 캠핑힐,경상남도 하동군 청암면 상이리 1446,경상남도 하동군 청암면 사동길 2,52310,river,glamping,couple,17,1715,35.1810418,127.7547617,,
34,김제 모악산 캠핑파크(일반),전라북도 김제시 금산면 금산리 79-9,전라북도 김제시 금산면 모악로 476-31,54343,sea,easycamping,kids,9,903,35.7160081,127.0440067,,
35,해오름 글램핑,경기도 포천시 소흘읍 이곡리 479-8,경기도 포천시 소흘읍 광릉수목원로874번길 5,11187,lake,caravan,pet,3,302,37.777109,127.1464399,,
36,노을캠핑장,인천광역시 강화군 양도면 건평리 463-11번지,인천광역시 강화군 양도면 해안서로 695,23056,sea,easycamping,kids,2,201,37.6906939,126.3920765,,
37,어망골 캠핑장,충청남도 보령시 천북면 장은리 970,충청남도 보령시 천북면 사호장은로 638,33400,lake,caravan,pet,7,706,36.5055523,126.4905951,,
38,범화권역 글램핑장,충청북도 영동군 학산면 도덕리 806-3,충청북도 영동군 학산면 용화양강로 1380,29167,mountain,camping,family,8,804,36.0845127,127.7238831,,
39,오시유,충청남도 천안시 동남구 광덕면 광덕리 720-12번지,충청남도 천안시 동남구 광덕면 해수길 178-38,31220,river,glamping,couple,7,712,36.6756948,127.0278109,,
40,블루파크,경기도 포천시 화현면 명덕리 179-1,경기도 포천시 화현면 봉화로 267,11125,lake,caravan,pet,3,302,37.8723616,127.2784102,,
41,푸른섬 캠핑장,경기도 안산시 단원구 대부북동 1865-63,경기도 안산시 단원구 연목이길 31-21 (대부북동),15640,mountain,camping,family,3,308,37.258289,126.5731267,,
42,(주)하늘마음바이오 홍천지점 알파카스테이,강원도 홍천군 화촌면 풍천리 107-2번지,강원도 홍천군 화촌면 가락재로 206,25156,river,glamping,couple,4,414,37.8332545,127.8882651,,
43,용추솔밭관광농원,경상남도 함양군 안의면 상원리 757-19 관광농원,경상남도 함양군 안의면 용추계곡로 494-6,50005,sea,easycamping,kids,17,1717,35.6748198,127.7739851,,
44,달콤이네 캠핑장,강원도 원주시 문막읍 취병리 358번지,강원도 원주시 문막읍 취병로 106,26360,lake,caravan,pet,4,408,37.3111808,127.800606,,
45,대부관광농원 오캠핑,경기도 안산시 단원구 대부남동 647-1,경기도 안산시 단원구 대남로 642 (대부남동),15653,mountain,camping,family,3,308,37.2300463,126.5802849,,
46,하와이언캠프,인천광역시 옹진군 영흥면 내리 1327번지,인천광역시 옹진군 영흥면 영흥서로446번길 46,23117,river,glamping,couple,2,202,37.2688539,126.4708583,,
47,새연 글램핑 카라반 설악2호점,경기도 가평군 설악면 회곡리 24-2,경기도 가평군 설악면 유명로 1939-26,12459,lake,caravan,pet,3,301,37.6831942,127.4702712,,
48,두레캠핑장,경기도 가평군 청평면 상천리 1494번지 두레마을휴양림,경기도 가평군 청평면 상지로 171,12449,mountain,camping,family,3,301,37.7686813,127.4700681,,
49,마로니에숲 캠핑장,충청북도 옥천군 이원면 장찬리 145-9,충청북도 옥천군 이원면 장찬길 159-73,29061,river,glamping,couple,8,805,36.2451224,127.5941999,,
50,갈릴리 야영장,경기도 평택시 안중읍 학현리 129-10번지,경기도 평택시 안중읍 안중북로 119,17816,sea,easycamping,kids,3,320,36.9916333,126.9071514,,
51,황산도캠핑장,인천광역시 강화군 길상면 초지리 1328-2번지 대나무집,인천광역시 강화군 길상면 해안남로65번길 36-15,23052,lake,caravan,pet,2,201,37.6223499,126.5385599,,
52,대가야캠프타운,경상북도 고령군 운수면 신간리 465,경상북도 고령군 운수면 물한1길 78-8,40123,mountain,camping,family,16,1603,35.7956332,128.3159878,,
53,숲속의 작은집,강원도 영월군 무릉도원면 두산리 산 175,강원도 영월군 무릉도원면 새막골길 133,26200,river,glamping,couple,4,420,37.3173996,128.1646503,,
54,월드니스 오토캠핑장,강원도 영월군 무릉도원면 도원리 795-1,강원도 영월군 무릉도원면 도원운학로 475-10,26201,sea,easycamping,kids,4,420,37.3001573,128.221309,,
55,외룡송어회 캠핑장,강원도 영월군 김삿갓면 외룡리 651-1번지,강원도 영월군 김삿갓면 직실길 7,26247,lake,caravan,pet,4,420,37.1167026,128.6423741,,
56,넵투누스 카라반,경기도 가평군 청평면 고성리 25-1,경기도 가평군 청평면 고재길 262-123,12456,mountain,camping,family,3,301,37.7000527,127.5172798,,
57,시공간,전라남도 여수시 남면 유송리 702번지,전라남도 여수시 남면 솔고지길 105,59785,river,glamping,couple,11,1112,34.5475652,127.7262263,,
58,풀앤밸리야영장,강원도 양양군 현북면 원일전리 34-1번지,강원도 양양군 현북면 남대천로 1352,25049,sea,easycamping,kids,4,404,37.9935081,128.6524927,,
59,프렌즈캠핑장,충청북도 제천시 청풍면 도곡리 92번지,충청북도 제천시 청풍면 청풍명월로 869-9,27214,lake,caravan,pet,8,807,37.0043945,128.1328006,,
60,파라다이스캠프,강원도 영월군 무릉도원면 법흥리 137번지,강원도 영월군 무릉도원면 무릉법흥로 1128-10,26201,mountain,camping,family,4,420,37.3571384,128.2786679,,
61,병목안캠핑장,경기도 안양시 만안구 안양동 산 81-6번지,경기도 안양시 만안구 병목안로247번길 35,430010,river,glamping,couple,3,324,37.3822113,126.9101975,,
62,뉴욕카라반,강원도 속초시 대포동 478-7번지,강원도 속초시 동해대로 3847-7 (대포동),24900,sea,easycamping,kids,4,417,38.1782568,128.6016618,,
63,용소캠핑장,경기도 가평군 북면 도대리 335-3번지,경기도 가평군 북면 가화로 2411-32,12401,lake,caravan,pet,3,301,37.9546312,127.4732062,,
64,용담댐 오토캠핑장,전라북도 진안군 안천면 삼락리 1058-2번지,전라북도 진안군 안천면 안용로 539,55406,mountain,camping,family,9,913,35.9366772,127.5297622,,
65,우리두리 캠핑장,강원도 영월군 무릉도원면 법흥리 522,강원도 영월군 무릉도원면 백년계곡길 11,26201,river,glamping,couple,4,420,37.3660305,128.2720895,,
66,정화네불한증막 힐링캠프,전라북도 정읍시 고부면 신중리 305-18,전라북도 정읍시 고부면 덕신강길 148-4,56152,sea,easycamping,kids,9,912,35.6015147,126.7616626,,
67,유수암 캠핑장,제주특별자치도 제주시 애월읍 유수암리 2994,제주특별자치도 제주시 애월읍 하소로 684-25,63067,lake,caravan,pet,18,1801,33.422314,126.3939899,,
68,코코캠핑,충청북도 충주시 대소원면 탄용리 632-5,충청북도 충주시 대소원면 외동길 192,27473,mountain,camping,family,8,810,36.919742,127.8417206,,
69,히어리 캠핑장,강원도 영월군 김삿갓면 와석리 744번지,강원도 영월군 김삿갓면 김삿갓로 587-6,26246,lake,caravan,pet,4,420,37.1048241,128.6026791,,
70,삿갓펜션 캠핑장,강원도 영월군 김삿갓면 와석리 878번지,강원도 영월군 김삿갓면 김삿갓로 362,26246,mountain,camping,family,4,420,37.0909622,128.6035289,,
71,동해글램핑장,강원도 동해시 추암동 32,강원도 동해시 쉬눔길 80-1 (추암동),25790,sea,easycamping,kids,4,405,37.4720154,129.1535955,,
72,금관숲캠핑장,충청북도 청주시 상당구 미원면 금관리 336-4번지,충청북도 청주시 상당구 미원면 운암계원로 628,28201,lake,caravan,pet,8,809,36.6203129,127.7254761,,
73,칠성캠핑장,충청북도 괴산군 칠성면 사평리 10-1번지 야영장,충청북도 괴산군 칠성면 중부로 5611-21,28019,river,glamping,couple,8,801,36.7843851,127.8781532,,
74,북극곰,강원도 평창군 봉평면 흥정리 312-2번지,강원도 평창군 봉평면 흥정계곡길 313-3,25300,sea,easycamping,kids,4,413,37.6376283,128.3387439,,
75,자연과함께,강원도 영월군 무릉도원면 법흥리 61-7번지,강원도 영월군 무릉도원면 무릉법흥로 968-31,26201,lake,caravan,pet,4,420,37.3346139,128.2867708,,
76,하늘정원 캠핑장,인천광역시 강화군 길상면 동검리 17-14번지,인천광역시 강화군 길상면 동검길 21-1,23053,mountain,camping,family,2,201,37.5957327,126.5184629,,
77,맑은물소리캠핑장,경기도 가평군 설악면 천안리 727-6번지,경기도 가평군 설악면 가마소길 17-270,12469,sea,easycamping,kids,3,301,37.6348169,127.4728843,,
78,화원684글램핑,전라남도 해남군 화원면 매월리 684-7,전라남도 해남군 화원면 매봉길 528-8,59000,mountain,camping,family,11,1119,34.7595605,126.291787,,
79,캠프 B.T.S,강원도 삼척시 근덕면 덕산리 119-1 캠프장관리소,강원도 삼척시 근덕면 덕산해변길 82,25934,river,glamping,couple,4,406,37.3786803,129.2434984,,
80,이천농업테마공원 국민여가캠핑장,경기도 이천시 모가면 어농리 871-3,경기도 이천시 모가면 공원로 48,17406,sea,easycamping,kids,3,319,37.1839635,127.4316313,,
81,칠포그린로즈야영장,경상북도 포항시 북구 흥해읍 금장리 30-1,경상북도 포항시 북구 흥해읍 암각화길 31,37530,lake,caravan,pet,16,1621,36.1353877,129.3848033,,
82,아지트글램핑농원,경기도 포천시 화현면 화현리 533-3번지,경기도 포천시 화현면 화동로477번길 1,11123,mountain,camping,family,3,302,37.9087645,127.3072786,,
83,케이엘리조트,경기도 가평군 설악면 회곡리 305-4,경기도 가평군 설악면 유명로 2204,12459,river,glamping,couple,3,301,37.7014684,127.4548715,,
84,그림책동화마을 품 캠핑장,경기도 동두천시 탑동동 666,경기도 동두천시 삼육사로 1366 (탑동동),11360,mountain,camping,family,3,317,37.8895568,127.0988559,,
85,철이네캠핑장,경기도 가평군 설악면 가일리 223번지,경기도 가평군 설악면 유명산길 79-18,12473,river,glamping,couple,3,301,37.5941915,127.4906451,,
86,소나무 풍경 펜션 야영장,경상남도 창녕군 계성면 사리 325,경상남도 창녕군 계성면 계성화왕산로 161,50338,lake,caravan,pet,17,1712,35.4903167,128.5264615,,
87,강화바다관광농원,인천광역시 강화군 화도면 장화리 1122번지 강화바다관광농원,인천광역시 강화군 화도면 해안남로 2355,23061,mountain,camping,family,2,201,37.6135069,126.3823826,,
88,토일관광농원,경기도 포천시 군내면 직두리 160-4번지,경기도 포천시 군내면 청군로 2857,11155,river,glamping,couple,3,302,37.8673823,127.2491014,,
89,다놀자캠핑장,경상북도 상주시 화서면 하송리 372,경상북도 상주시 화서면 문장로 425-5,37138,sea,easycamping,kids,16,1609,36.47128,127.9638884,,
90,블루문캠핑장,경기도 가평군 상면 행현리 621-8,경기도 가평군 상면 수목원로386번길 43,12448,mountain,camping,family,3,301,37.7467337,127.3501316,,
91,하솜캠프,경기도 포천시 일동면 화대리 94-2번지,경기도 포천시 일동면 무리울길 40,11118,sea,easycamping,kids,3,302,37.9569505,127.3366085,,
92,에버그린 캠핑장,충청남도 논산시 벌곡면 덕곡리 172-4번지,충청남도 논산시 벌곡면 수락로237번길 26-96,33028,lake,caravan,pet,7,704,36.1720014,127.2938013,,
93,방길낚시캠핑장,전라북도 임실군 신덕면 삼길리 166-6번지,전라북도 임실군 신덕면 삼길1길 155-77,55903,mountain,camping,family,9,910,35.6821424,127.1321021,,
94,웰컴투캠프,강원도 영월군 무릉도원면 법흥리 535-3번지,강원도 영월군 무릉도원면 무릉법흥로 1128-20,26201,river,glamping,couple,4,420,37.3583197,128.2779261,,
95,별천지야영장,경기도 가평군 북면 화악리 741-7번지,경기도 가평군 북면 화악산로 816,12402,sea,easycamping,kids,3,301,37.9327613,127.5470684,,
96,선인장,전라남도 담양군 월산면 중월리 442번지,전라남도 담양군 월산면 담장로 548,57314,lake,caravan,pet,11,1107,35.349014,126.9222576,,
97,힐링캠프,울산광역시 울주군 상북면 덕현리 155-1,울산광역시 울주군 상북면 소야정길 10,44901,mountain,camping,family,14,1401,35.6164062,129.0536411,,
98,들소리 키즈 글램핑,전라남도 영암군 신북면 학동리 468번지 신북서초등학교,전라남도 영암군 신북면 들소리로 384-14,58400,river,glamping,couple,11,1114,34.9288277,126.6790086,,
99,불스글램핑 함평점,전라남도 함평군 함평읍 장년리 726,전라남도 함평군 함평읍 장년길 40,57136,sea,easycamping,kids,11,1118,35.0938256,126.4765173,,
100,서해캠핑장,인천광역시 중구 을왕동 810-308,인천광역시 중구 용유서로423번길 41 (을왕동),22383,lake,caravan,pet,2,203,37.4585324,126.3722299,,
101,노꼬담꼬,경상북도 경주시 산내면 감산리 668-4,경상북도 경주시 산내면 감존길 390-65,38185,mountain,camping,family,16,1602,35.8193702,129.0525286,,
102,호명산잣나무숲속캠핑장,경기도 가평군 청평면 상천리 산 392-1번지 상천지구농촌테마공원,경기도 가평군 청평면 상지로64번길 77,12449,river,glamping,couple,3,301,37.7703229,127.4560316,,
103,핀란드캠핑성,경기도 가평군 상면 봉수리 14,경기도 가평군 상면 물골길 102,12440,sea,easycamping,kids,3,301,37.8365633,127.3161182,,
104,잣향기푸른숲,경기도 가평군 상면 행현리 800,경기도 가평군 상면 축령로 183-53,12448,lake,caravan,pet,3,301,37.7741068,127.356023,,
105,솔향기 캠핑장,강원도 영월군 무릉도원면 법흥리 612-5,강원도 영월군 무릉도원면 무릉법흥로 787,26201,river,glamping,couple,4,420,37.3320319,128.2743941,,
106,펫힐링 달빛동물원 캠핑장,강원도 영월군 남면 연당리 647번지,강원도 영월군 남면 나뱅이길 61,26217,sea,easycamping,kids,4,420,37.1721783,128.4032055,,
107,문앤스타 캠핑장,경기도 양평군 용문면 중원리 399-2,경기도 양평군 용문면 중원산로 478,12512,lake,caravan,pet,3,304,37.542702,127.6173193,,
108,KEROAIN CAMP,강원도 영월군 무릉도원면 운학리 930-3번지,강원도 영월군 무릉도원면 학산길 26-9,26200,mountain,camping,family,4,420,37.3192583,128.1883956,,
109,소양호 뱃길나루터,강원도 양구군 양구읍 석현리 137-2,강원도 양구군 양구읍 소양호로 2522,24517,river,glamping,couple,4,407,38.0417987,127.9699164,,
110,십리포해수욕장 야영장,인천광역시 옹진군 영흥면 내리 724-195,인천광역시 옹진군 영흥면 영흥북로 388-1,23118,sea,easycamping,kids,2,202,37.2688539,126.4708583,,
111,소회산리멍우리협곡관광농원(캠핑장),경기도 포천시 영북면 소회산리 372번지,경기도 포천시 영북면 소회산길 399,11108,lake,caravan,pet,3,302,38.0923892,127.2337381,,
112,오지봉커뮤니센터 야영장,전라남도 곡성군 오산면 봉동리 945-152번지,전라남도 곡성군 오산면 오산로 663-17,57518,mountain,camping,family,11,1103,35.2407871,127.1158929,,
113,연지관광농원(연지곤지팜캠핑장),경기도 포천시 소흘읍 직동리 77-3,경기도 포천시 소흘읍 직동길 48,11186,river,glamping,couple,3,302,37.7668294,127.1690188,,
114,디데이펜션&캠핑,강원도 홍천군 서면 굴업리 271-11,강원도 홍천군 서면 안굴업길 39-13,25103,sea,easycamping,kids,4,414,37.6172699,127.675439,,
115,국립방태산자연휴양림,강원도 인제군 기린면 방동리 산 282-1번지 방태산자연휴양림,강원도 인제군 기린면 방태산길 241,24656,lake,caravan,pet,4,409,37.9294888,128.3890714,,
116,나드리야영장,강원도 인제군 북면 용대리 1036-4번지,강원도 인제군 북면 만해로 249,24606,mountain,camping,family,4,409,38.1889599,128.3620907,,
117,폭포가 있는 캠핑장,강원도 인제군 북면 용대리 366-2번지,강원도 인제군 북면 미시령로 1312,24605,river,glamping,couple,4,409,38.1889599,128.3620907,,
118,방태산솔마루오토캠핑장,강원도 인제군 기린면 방동리 260번지,강원도 인제군 기린면 방태산길 122-6,24656,sea,easycamping,kids,4,409,37.9126207,128.4151868,,
119,보광농촌체험휴양마을,강원도 강릉시 성산면 보광리 308번지,강원도 강릉시 성산면 보현길 5,25442,lake,caravan,pet,4,401,37.7373182,128.807125,,
120,여수자매로캠핑장,전라남도 여수시 화양면 이목리 39,전라남도 여수시 화양면 자매로 170,59653,river,glamping,couple,11,1112,34.6641323,127.5782888,,
121,강릉여행 GOOD캠핑,강원도 강릉시 사천면 방동리 112-5번지,강원도 강릉시 사천면 해안로 904-8,25440,sea,easycamping,kids,4,401,37.8317365,128.8763662,,
122,포레스트 캠핑장,경기도 포천시 화현면 명덕리 179-3번지,경기도 포천시 화현면 봉화로 269,11125,lake,caravan,pet,3,302,37.8734157,127.2783988,,
123,원's 캠핑장,인천광역시 강화군 삼산면 매음리 544-1,인천광역시 강화군 삼산면 삼산남로604번길 37,23007,mountain,camping,family,2,201,37.6646,126.3404091,,
124,집다리캠핑장,강원도 춘천시 사북면 지암리 127-4,강원도 춘천시 사북면 화악지암길 594,24200,river,glamping,couple,4,412,37.9789846,127.6226018,,
125,더스트림카라반 야영장,경상북도 영덕군 강구면 하저리 6-4번지,경상북도 영덕군 강구면 영덕대게로 579,36453,sea,easycamping,kids,16,1612,36.3935581,129.4146016,,
126,에스글램핑,충청남도 천안시 동남구 풍세면 풍서리 263,충청남도 천안시 동남구 풍세면 호정1길 28-17,31216,lake,caravan,pet,7,712,36.7170563,127.1293966,,
127,고사포야영장,전라북도 부안군 변산면 운산리 441-11,전라북도 부안군 변산면 변산해변로 765,56339,mountain,camping,family,9,906,35.6622738,126.5098696,,
128,타요캠핑장,강원도 삼척시 오분동 1-40,강원도 삼척시 삼척로 4246-29 (오분동),25930,river,glamping,couple,4,406,37.4313579,129.1901923,,
129,잔야캠핑,충청북도 괴산군 청천면 지촌리 84-4,충청북도 괴산군 청천면 도경로 638,28059,sea,easycamping,kids,8,801,36.7199773,127.8000568,,
130,영암 프리미엄 키즈글램핑,전라남도 영암군 시종면 신학리 709번지 시종신학초등학교,전라남도 영암군 시종면 신학1로 47,58428,lake,caravan,pet,11,1114,34.8240529,126.5780797,,
131,따봄,경기도 하남시 교산동 61,경기도 하남시 서하남로576번길 119 (교산동),13018,river,glamping,couple,3,325,37.518261,127.2071276,,
132,어썸캠핑장,인천광역시 강화군 화도면 내리 2530-6,인천광역시 강화군 화도면 마니산로 808-11,23060,sea,easycamping,kids,2,201,37.6346334,126.4085142,,
133,오솔길 오토 캠핑장,경상북도 경주시 산내면 내일리 756-2,경상북도 경주시 산내면 상목길 108-3,38185,lake,caravan,pet,16,1602,35.7420631,129.0751708,,
134,홍스랜드,제주특별자치도 제주시 애월읍 어음리 1412-1,제주특별자치도 제주시 애월읍 어음13길 25-45,63038,mountain,camping,family,18,1801,33.4024004,126.3478473,,
135,포유카라반파크,경상북도 포항시 남구 구룡포읍 구평리 504,경상북도 포항시 남구 구룡포읍 동해안로4176번길 12,37940,river,glamping,couple,16,1621,35.9410412,129.5311839,,
136,경산 갓바위캠핑장,경상북도 경산시 와촌면 대한리 553-3,경상북도 경산시 와촌면 갓바위로 596,38400,sea,easycamping,kids,16,1601,35.9857956,128.748239,,
137,나아정,경기도 가평군 상면 행현리 807-5,경기도 가평군 상면 축령로 183-102,12448,lake,caravan,pet,3,301,37.7726406,127.353022,,
138,유명산밸리 캠핑장,경기도 가평군 설악면 가일리 308-18,경기도 가평군 설악면 유명로 626,12473,mountain,camping,family,3,301,37.6021359,127.4935219,,
139,부항댐 생태휴양펜션,경상북도 김천시 부항면 지좌리 330,경상북도 김천시 부항면 부항댐길 777,39689,river,glamping,couple,16,1606,35.9728905,127.9810771,,
140,오하브글램핑,경기도 가평군 북면 제령리 533-1,경기도 가평군 북면 꽃넘이길 43,12405,sea,easycamping,kids,3,301,37.8959699,127.5268174,,
141,월성오토캠핑장,경상남도 거창군 북상면 월성리 50-16번지,경상남도 거창군 북상면 덕유월성로 1588-9,50100,mountain,camping,family,17,1702,35.7613927,127.739545,,
142,세계캠핑체험존,경기도 연천군 전곡읍 전곡리 705-2번지,경기도 연천군 전곡읍 선사로 123,11027,sea,easycamping,kids,3,310,38.0154359,127.0664167,,
143,청계산 골든밸리 가족캠핑장,경기도 성남시 수정구 금토동 112,경기도 성남시 수정구 달래내로221번길 17-5 (금토동),13450,lake,caravan,pet,3,326,37.4158558,127.0781591,,
144,마실캠핑장,경기도 파주시 적성면 자장리 105-4,경기도 파주시 적성면 국사로 271,10801,mountain,camping,family,3,309,37.9598106,126.8711907,,
145,대부도 아라뜰 캠핑장,경기도 안산시 단원구 대부남동 28-110,경기도 안산시 단원구 부흥로 232-21 (대부남동),15649,river,glamping,couple,3,308,37.2300463,126.5802849,,
146,루파니애견캠핑장,충청북도 괴산군 감물면 구월리 493번지,충청북도 괴산군 감물면 감물로 362-54,28005,sea,easycamping,kids,8,801,36.8591943,127.8780346,,
147,화기애애 단풍 캠핑장,강원도 평창군 봉평면 흥정리 383-7번지,강원도 평창군 봉평면 흥정계곡길 674-38,25300,lake,caravan,pet,4,413,37.6465092,128.3129109,,
148,행화촌자연테마파크,경상북도 칠곡군 지천면 백운리 172-3번지,경상북도 칠곡군 지천면 지천로 798-9,39863,mountain,camping,family,16,1620,36.0004967,128.4839056,,
149,이화야영장,경상북도 칠곡군 지천면 황학리 136번지,경상북도 칠곡군 지천면 황학4길 21,39863,river,glamping,couple,16,1620,36.0393561,128.4892591,,
150,열두달캠핑장,경기도 가평군 북면 목동리 542번지,경기도 가평군 북면 멱골로 202-101,12403,sea,easycamping,kids,3,301,37.9042982,127.5706055,,
151,아쿠아베이(주) 글램핑,경상북도 포항시 남구 송도동 253-5,경상북도 포항시 남구 운하로 207 (송도동),37730,lake,caravan,pet,16,1621,36.0486444,129.3744851,,
152,동강빌리지,강원도 영월군 영월읍 삼옥리 1621-5,강원도 영월군 영월읍 동강로 223,26223,mountain,camping,family,4,420,37.200451,128.5073317,,
153,산호야관광농원,경상북도 구미시 옥성면 대원리 447,경상북도 구미시 옥성면 선상서로 797,39102,river,glamping,couple,16,1604,36.2787156,128.2437142,,
154,윤제림오토캠핑장,전라남도 보성군 겸백면 수남리 산 1-1번지,전라남도 보성군 겸백면 주월산길 222,59412,sea,easycamping,kids,11,1109,34.8251296,127.206553,,
155,장성잔디로야영장,전라남도 장성군 삼서면 수양리 666-1,전라남도 장성군 삼서면 수양로 100-32,57256,lake,caravan,pet,11,1116,35.2421293,126.6632912,,
156,가야산 캠핑장,충청남도 예산군 덕산면 대치리 22-3,충청남도 예산군 덕산면 윤봉길로 489-8,32407,mountain,camping,family,7,711,36.6864935,126.6297495,,
157,휴랜드관광농원,경기도 포천시 이동면 도평리 509,경기도 포천시 이동면 금강로 6159-7,11110,river,glamping,couple,3,302,38.0757063,127.4032977,,
158,파인벨리펜션 글램핑,경기도 포천시 화현면 명덕리 193-1,경기도 포천시 화현면 봉화로 315-97,11125,sea,easycamping,kids,3,302,37.8750487,127.2742135,,
159,죠스캠핑장,경기도 동두천시 탑동동 405-1 외 1필지(405-2),경기도 동두천시 삼육사로 1422-36 (탑동동),11322,lake,caravan,pet,3,317,37.8905033,127.1046949,,
160,캠핑in곡성,전라남도 곡성군 고달면 고달리 산 8번지,전라남도 곡성군 고달면 고산로 406,57546,river,glamping,couple,11,1103,35.2957311,127.376175,,
161,토리아이글램핑,강원도 홍천군 서면 모곡리 306-3번지,강원도 홍천군 서면 설밀길 190-20,25100,sea,easycamping,kids,4,414,37.6808951,127.5912843,,
162,가평뚜뚜글램핑,경기도 가평군 가평읍 두밀리 56-3,경기도 가평군 가평읍 태봉두밀로406번길 14-27,12425,lake,caravan,pet,3,301,37.8188652,127.4570783,,
163,수리덤 숲속야영장,경상북도 청도군 운문면 신원리 268번지,경상북도 청도군 운문면 신원3길 138,38368,mountain,camping,family,16,1619,35.6805692,129.0108419,,
164,마의태자캠핑장,강원도 인제군 상남면 상남리 564번지 마의태자 캠핑장,강원도 인제군 상남면 엄달골길 165,24664,river,glamping,couple,4,409,37.8667727,128.2313429,,
165,봉스글램핑,경상남도 거창군 마리면 율리 345 율리주민공동체련장,경상남도 거창군 마리면 풍계1길 27-71,50105,lake,caravan,pet,17,1702,35.7351858,127.85647,,
166,인스타글램,강원도 춘천시 사북면 지암리 428-1,강원도 춘천시 사북면 화악지암길 420-11,24200,river,glamping,couple,4,412,37.9795026,127.6066276,,
167,더 포레스트,경기도 양평군 지평면 일신리 1275-5,경기도 양평군 지평면 일신리길 134-23,12542,sea,easycamping,kids,3,304,37.4401196,127.6895835,,
168,포시즌캠핑장,경기도 가평군 북면 화악리 834-7,경기도 가평군 북면 화악산로 1039-16,12402,lake,caravan,pet,3,301,37.9461347,127.5361409,,
169,양양포레스트캠핑장,강원도 양양군 현북면 상광정리 671-5,강원도 양양군 현북면 검소길 117,25046,mountain,camping,family,4,404,38.0076819,128.6916983,,
170,포항국민여가캠핑장,경상북도 포항시 남구 연일읍 중명리 570,경상북도 포항시 남구 연일읍 중명길 175,37856,river,glamping,couple,16,1621,35.9809888,129.3139508,,
171,클라인캠프빌리지,경기도 양평군 개군면 자연리 1-5,경기도 양평군 개군면 추읍로 268-37,12570,sea,easycamping,kids,3,304,37.4275694,127.5682212,,
172,숲속야영장 횡성대피소,강원도 횡성군 우천면 하궁리 893-1,강원도 횡성군 우천면 경강로 3770-52,25245,lake,caravan,pet,4,416,37.4964845,128.1409118,,
173,꽃댕이오토캠핑장,충청북도 제천시 백운면 화당리 1-3,충청북도 제천시 백운면 화당로2길 176,27100,mountain,camping,family,8,807,37.1852473,127.9920485,,
174,토함산관광농원(캠프5),경상북도 경주시 하동 461-1,경상북도 경주시 보정로 264-97 (하동),38126,river,glamping,couple,16,1602,35.8019297,129.298081,,
175,모란골관광농원,강원도 인제군 북면 한계리 872,강원도 인제군 북면 모란골길 131,24607,sea,easycamping,kids,4,409,38.1227531,128.3023006,,
176,준삼형제글램핑,경기도 연천군 왕징면 무등리 8-13,경기도 연천군 왕징면 왕산로40번길 21,11044,lake,caravan,pet,3,310,38.0580126,127.0131351,,
177,캠프게이트,경기도 가평군 청평면 고성리 578-19,경기도 가평군 청평면 호반로 1025-26,12456,mountain,camping,family,3,301,37.7130652,127.4883274,,
178,마린힐캠핑장,충청북도 제천시 수산면 상천리 558-1,충청북도 제천시 수산면 옥순봉로 503-1,27218,river,glamping,couple,8,807,36.95394,128.223618,,
179,나정고운모래해변 오토캠핑장,경상북도 경주시 감포읍 나정리 633-6,경상북도 경주시 감포읍 동해안로 1976,38123,sea,easycamping,kids,16,1602,35.7835763,129.4906626,,
180,더빌리지캠핑장,충청남도 태안군 근흥면 마금리 53-22,충청남도 태안군 근흥면 마금로 184,32128,lake,caravan,pet,7,702,36.7488176,126.2281664,,
181,한천관광농원야영장,전라남도 화순군 한천면 오음리 산 31-6,전라남도 화순군 한천면 죽헌로 376-34,58147,river,glamping,couple,11,1120,34.9733065,127.0101898,,
182,달사랑 캠핑장,경기도 포천시 신북면 기지리 283,경기도 포천시 신북면 아트밸리로 196,11139,sea,easycamping,kids,3,302,37.9234953,127.2346114,,
183,어은돌힐링야영장,충청남도 태안군 소원면 모항리 802-14,충청남도 태안군 소원면 연들길 84,32123,lake,caravan,pet,7,702,36.7525478,126.1319097,,
184,어은돌오토캠핑장,충청남도 태안군 소원면 파도리 543-541,충청남도 태안군 소원면 모항파도로 398-70,32124,mountain,camping,family,7,702,36.7430352,126.1488551,,
185,위드독스in포천,경기도 포천시 관인면 사정리 103,경기도 포천시 관인면 뗏마루길 128-26,11101,river,glamping,couple,3,302,38.1208381,127.2521698,,
186,해그라미,전라남도 고흥군 금산면 신평리 1001-1,전라남도 고흥군 금산면 평산길 98,59565,sea,easycamping,kids,11,1102,34.4909695,127.1770796,,
187,숲에 안기다,경상북도 고령군 덕곡면 옥계리 227-2,경상북도 고령군 덕곡면 야로덕곡로 483-68,40129,lake,caravan,pet,16,1603,35.7705462,128.1770301,,
188,폰타나리조트,충청남도 서산시 팔봉면 진장리 806-5 폰타나리조트,충청남도 서산시 팔봉면 팔봉2로 29,31925,mountain,camping,family,7,708,36.774786,126.3567192,,
189,주원캠핑장,경기도 용인시 처인구 원삼면 목신리 698,경기도 용인시 처인구 원삼면 보개원삼로1415번길 11-14,17170,river,glamping,couple,3,307,37.1202879,127.3074782,,
190,청계호수 자작나무숲 캠핑장,경기도 포천시 일동면 기산리 23-3,경기도 포천시 일동면 운악청계로1480번길 22,11119,sea,easycamping,kids,3,302,37.9384078,127.3396216,,
191,오롯하다 키즈글램핑 가평,경기도 가평군 북면 제령리 596-2,경기도 가평군 북면 가화로 1364-55,12405,river,glamping,couple,3,301,37.9019973,127.5138977,,
192,글램조이(GLAMJOI),인천광역시 강화군 양도면 건평리 463-12,인천광역시 강화군 양도면 해안서로 689,23056,lake,caravan,pet,2,201,37.6906939,126.3920765,,
193,부싯돌 캠핑,충청남도 천안시 동남구 북면 양곡리 262-1,충청남도 천안시 동남구 북면 양곡1길 233-40,31237,mountain,camping,family,7,712,36.8523494,127.2854706,,
194,어은돌송림캥핑장,충청남도 태안군 소원면 파도리 543-572,충청남도 태안군 소원면 모항파도로 398-42,32124,sea,easycamping,kids,7,702,36.7430352,126.1488551,,
195,썬오브글램핑,경기도 포천시 이동면 도평리 538-7,경기도 포천시 이동면 금강로6263번길 14-2,11110,lake,caravan,pet,3,302,38.0757063,127.4032977,,
196,양평온누리캠핑장,경기도 양평군 서종면 노문리 439,경기도 양평군 서종면 갈문길 29-1,12500,river,glamping,couple,3,304,37.6471395,127.433569,,
197,여수경도펜션카라반,전라남도 여수시 경호동 234-1 내경도교회,전라남도 여수시 대경도5길 25-8,59766,sea,easycamping,kids,11,1112,34.7085275,127.7216863,,
198,아린 글램핑,경기도 가평군 설악면 회곡리 361-1,경기도 가평군 설악면 유명로 2150-14,12459,lake,caravan,pet,3,301,37.6989641,127.459495,,
199,휘명빌리지,경상북도 영천시 신녕면 연정리 1030,경상북도 영천시 신녕면 신화로 120,38803,river,glamping,couple,16,1615,36.0459489,128.8007587,,
200,사계오토캠핑장,경상북도 포항시 남구 구룡포읍 석병리 794-15,경상북도 포항시 남구 구룡포읍 일출로 203-20,37930,sea,easycamping,kids,16,1621,36.0122274,129.5757699,,
201,Forest Healing Camp,충청북도 단양군 가곡면 대대리 494,충청북도 단양군 가곡면 새밭로 240-1,27023,river,glamping,couple,8,802,37.0083107,128.4052396,,
202,해가빛 캠핑장,충청남도 서천군 서면 신합리 530-233,충청남도 서천군 서면 갯벌체험로 56-14,33602,sea,easycamping,kids,7,709,36.1465766,126.548498,,
203,G-Men 카라반파크,경기도 안양시 만안구 석수동 241-44 안양블루몬테 수영장,경기도 안양시 만안구 예술공원로 213 (석수동),13911,lake,caravan,pet,3,324,37.4210476,126.9292713,,
204,캠앤캠아지트,경상남도 밀양시 단장면 구천리 1381-29,경상남도 밀양시 단장면 구천1길 9-16,50418,river,glamping,couple,17,1706,35.5396576,128.9227132,,
205,엄둔밸리 캠핑장,강원도 영월군 무릉도원면 도원리 704,강원도 영월군 무릉도원면 엄둔길 145,26201,lake,caravan,pet,4,420,37.3098382,128.2347294,,
206,제천J글램핑,충청북도 제천시 백운면 운학리 445-5,충청북도 제천시 백운면 운학길 326-9,27102,mountain,camping,family,8,807,37.2270157,127.9983345,,
207,은이골농원,경기도 용인시 처인구 양지면 남곡리 759,경기도 용인시 처인구 양지면 은이로 282,17161,sea,easycamping,kids,3,307,37.2058676,127.2780045,,
208,한반도 솔숲 쉼터,강원도 영월군 한반도면 광전리 599번지,강원도 영월군 한반도면 서강로 1159-93,26211,lake,caravan,pet,4,420,37.2504331,128.367584,,
209,연천 전곡리유적 구석기 체험숲,경기도 연천군 전곡읍 전곡리 183번지,경기도 연천군 전곡읍 평화로495번길 89,11027,sea,easycamping,kids,3,310,38.0127123,127.0656794,,
210,가평글램트리리조트,경기도 가평군 상면 상동리 산 36-12,경기도 가평군 상면 돌아우길 75,12443,lake,caravan,pet,3,301,37.7861028,127.3214483,,
211,안목커피거리카라반캠핑,강원도 강릉시 견소동 133-1번지 안목커피거리카라반캠핑,강원도 강릉시 경강로 2643 (견소동),25556,mountain,camping,family,4,401,37.7714068,128.9479309,,
212,자연카라반 캠핑장,경상북도 청도군 청도읍 구미리 60-1번지,경상북도 청도군 청도읍 구미길 101,38347,sea,easycamping,kids,16,1619,35.6325151,128.7609701,,
213,부례관광지,경상북도 고령군 우곡면 예곡리 97 부례 관광지,경상북도 고령군 우곡면 우곡강변길 672,40153,river,glamping,couple,16,1603,35.6728733,128.3602522,,
214,캠핑 올라,강원도 영월군 주천면 용석리 1281-1번지,강원도 영월군 주천면 황산벌길 186,26207,sea,easycamping,kids,4,420,37.2201805,128.2757564,,
215,허브하우스 금오산오토캠핑장,경상북도 김천시 아포읍 대성리 679-3,경상북도 김천시 아포읍 대성지1길 165,39677,lake,caravan,pet,16,1606,36.1070462,128.274873,,
216,허브하우스 금오산힐링타운,경상북도 김천시 남면 오봉리 1-3,경상북도 김천시 남면 우장길 448,39664,mountain,camping,family,16,1606,36.0999095,128.2753657,,
217,마노아 워터 캠핑장,경상남도 합천군 봉산면 압곡리 107-1번지,경상남도 합천군 봉산면 압곡3길 9,50210,river,glamping,couple,17,1718,35.6420904,128.0576283,,
218,화양동야영장,충청북도 괴산군 청천면 후영리 496번지 화양동야영장,충청북도 괴산군 청천면 화양로 733-38,28059,sea,easycamping,kids,8,801,36.6833793,127.8061643,,
219,힐링스토리펜션야영장,경상북도 영주시 풍기읍 욱금리 202-9번지,경상북도 영주시 풍기읍 삼가로 209,36018,lake,caravan,pet,16,1614,36.906104,128.5208248,,
220,용설호수캠핑장,경기도 안성시 죽산면 용설리 940-8번지,경기도 안성시 죽산면 용설호수길 234,17523,river,glamping,couple,3,313,37.0500595,127.4419098,,
221,송계계곡 숙박단지,충청북도 제천시 한수면 복평리 111,충청북도 제천시 한수면 미륵송계로 1868,27226,mountain,camping,family,8,807,36.9026655,128.0791238,,
222,내리 캠핑장,경기도 평택시 팽성읍 내리 20-3,경기도 평택시 팽성읍 내리길 64-23,17973,sea,easycamping,kids,3,320,36.9743651,127.0310514,,
223,다 그린,강원도 영월군 주천면 판운리 474-1,강원도 영월군 주천면 미다리길 58,26202,lake,caravan,pet,4,420,37.2915396,128.3266012,,
224,초리풍경,경기도 파주시 법원읍 법원리 162-3,경기도 파주시 법원읍 초리골길 180,10826,mountain,camping,family,3,309,37.8537966,126.8917255,,
225,더파인캠핑,경기도 포천시 소흘읍 고모리 144-2,경기도 포천시 소흘읍 죽엽산로 515,11185,river,glamping,couple,3,302,37.788277,127.1654227,,
226,우니메이카 밀양점,경상남도 밀양시 단장면 태룡리 494,경상남도 밀양시 단장면 국전로 78-5,50417,sea,easycamping,kids,17,1706,35.5084659,128.8752574,,
227,팔공 쉼터 야영장,경상북도 군위군 부계면 동산리 734-1,경상북도 군위군 부계면 원효길 57-1,39065,lake,caravan,pet,16,1605,36.0473,128.6593773,,
228,카라반파크 아마존,전라북도 완주군 구이면 항가리 499-2,전라북도 완주군 구이면 신전길 75-96,55362,mountain,camping,family,9,908,35.7198904,127.1092441,,
229,호미곶 고래마을 카라반 펜션,경상북도 포항시 남구 호미곶면 강사리 228-6,경상북도 포항시 남구 호미곶면 고래마을길 8,37929,river,glamping,couple,16,1621,36.03224,129.5775831,,
230,산마루카라반,경기도 포천시 이동면 연곡리 603,경기도 포천시 이동면 화동로1724번길 124-14,11113,sea,easycamping,kids,3,302,37.9950579,127.3745555,,
231,밀양 도깨비방망이 캠핑장,경상남도 밀양시 단장면 안법리 516-1 안법회관,경상남도 밀양시 단장면 단장로 1051,50416,mountain,camping,family,17,1706,35.4848476,128.8509041,,
232,쿠 야영장,경상남도 창원시 마산합포구 구산면 구복리 240,경상남도 창원시 마산합포구 구산면 해양관광로 1767,51783,sea,easycamping,kids,17,1713,35.0752412,128.5670273,,
233,용소유원지 야영장,경상남도 사천시 사남면 계양리 290,경상남도 사천시 사남면 계양길 132,52536,lake,caravan,pet,17,1707,34.9851668,128.1324343,,
234,위더스글램핑,경상남도 창녕군 남지읍 반포리 627-1,경상남도 창녕군 남지읍 박진로 627,50353,river,glamping,couple,17,1712,35.4257982,128.404189,,
235,위더스글램핑,경상남도 창녕군 남지읍 반포리 627-1,경상남도 창녕군 남지읍 박진로 627,50353,sea,easycamping,kids,17,1712,35.4257982,128.404189,,
236,라온힐야영장,경기도 가평군 상면 행현리 492,경기도 가평군 상면 수목원로 224,12448,mountain,camping,family,3,301,37.7587311,127.3612157,,
237,남한산성 캠핑장,경기도 광주시 남한산성면 오전리 24,경기도 광주시 남한산성면 남한산성로 144,12703,river,glamping,couple,3,312,37.4551174,127.2350504,,
238,공둘 캠핑장(02),충청남도 서천군 서면 주항리 211-1,충청남도 서천군 서면 주원로 59,33601,sea,easycamping,kids,7,709,36.1593021,126.5755553,,
239,펫앤트리,충청남도 서산시 팔봉면 호리 301-2,충청남도 서산시 팔봉면 호리중말길 13,31921,lake,caravan,pet,7,708,36.84111,126.3285421,,
240,해밀터,충청북도 괴산군 청천면 이평리 264-23,충청북도 괴산군 청천면 이평4길 23-14,28065,mountain,camping,family,8,801,36.6632095,127.8687455,,
241,몬테비얀코,경기도 포천시 이동면 장암리 46,경기도 포천시 이동면 늠바위길 181,11111,sea,easycamping,kids,3,302,38.0292026,127.3859783,,
242,호랑이캠핑,경기도 포천시 영북면 산정리 166-7,경기도 포천시 영북면 새낭로 919,11103,lake,caravan,pet,3,302,38.0450218,127.3040861,,
243,월명612,경상북도 김천시 남면 월명리 612,경상북도 김천시 남면 운봉1길 11-43,39667,mountain,camping,family,16,1606,36.0552567,128.2536235,,
244,일상화 글램핑,충청북도 보은군 산외면 이식리 84,충청북도 보은군 산외면 성암가고로 235-6,28901,sea,easycamping,kids,8,803,36.5851633,127.697424,,
245,경상북도교육청 포항산누리오토캠핑장,경상북도 포항시 북구 죽장면 하옥리 446-1,경상북도 포항시 북구 죽장면 죽장로 2805,37500,lake,caravan,pet,16,1621,36.3028908,129.2486562,,
246,강변글램핑,경기도 김포시 운양동 48,경기도 김포시 금포로 1202 (운양동),10075,river,glamping,couple,3,316,37.6515851,126.7008647,,
247,예닮펜션캠핑장,강원도 홍천군 두촌면 괘석리 489,강원도 홍천군 두촌면 군유동길64번길 7,25160,lake,caravan,pet,4,414,37.8600754,128.0941613,,
248,단아하우스,강원도 양양군 강현면 정암리 541-1 단독주택,강원도 양양군 강현면 진미로54번길 12-1,25001,sea,easycamping,kids,4,404,38.1494812,128.6027922,,
249,대장이랜드 농촌체험휴양마을,충청남도 공주시 계룡면 중장리 422-1 중장초등학교,충청남도 공주시 계룡면 갑사로 307,32615,lake,caravan,pet,7,701,36.3686003,127.1650678,,
250,하늘빛,인천광역시 옹진군 영흥면 내리 1659-2,인천광역시 옹진군 영흥면 영흥서로 527-26,23117,mountain,camping,family,2,202,37.2688539,126.4708583,,
251,르쏠레이475카페 야영장,강원도 양구군 양구읍 상리 475-2 475-3,강원도 양구군 양구읍 박수근로365번길 84-11,24519,river,glamping,couple,4,407,38.105461,127.9727181,,
252,부여교육가족체험장,충청남도 부여군 세도면 귀덕리 503-1,충청남도 부여군 세도면 인세로 40-3,33231,sea,easycamping,kids,7,707,36.1672252,126.9726644,,
253,안면도마린오토캠핑장,충청남도 태안군 안면읍 승언리 1321-2,충청남도 태안군 안면읍 방포항길 95,32166,lake,caravan,pet,7,702,36.5144302,126.3529178,,
254,우니메이카 당진점,충청남도 당진시 고대면 당진포리 490-5,충청남도 당진시 고대면 온동로 1-21,31790,mountain,camping,family,7,705,36.9601087,126.5492897,,
255,멍캠프,경기도 남양주시 수동면 내방리 147-9,경기도 남양주시 수동면 비룡로1378번길 36-6,12026,sea,easycamping,kids,3,305,37.7438298,127.2867334,,
256,인제소재골야영장,강원도 인제군 북면 월학리 2175,강원도 인제군 북면 냇강효자길 366,24610,river,glamping,couple,4,409,38.1583882,128.1839319,,
257,반디품은마을,전라북도 무주군 적상면 방이리 743-1,전라북도 무주군 적상면 삼방로 476,55526,lake,caravan,pet,9,905,35.9589634,127.6095773,,
258,밀양캠핑홀릭,경상남도 밀양시 청도면 조천리 산 57번지,경상남도 밀양시 청도면 조천길 337-64,50400,mountain,camping,family,17,1706,35.5176004,128.617707,,
259,서울 서초 글램핑 청계산장,서울특별시 서초구 원지동 207-1,서울특별시 서초구 청계산로 140-94 (원지동),6805,river,glamping,couple,1,101,37.4483689,127.0463708,,
260,포포나무야영장,충청남도 청양군 화성면 농암리 267,충청남도 청양군 화성면 배울제길 36-17,33312,sea,easycamping,kids,7,713,36.4417439,126.7161124,,
261,무주 별빛 카라반,전라북도 무주군 설천면 삼공리 518번지,전라북도 무주군 설천면 백련사길 2-29,55557,mountain,camping,family,9,905,35.8946488,127.7757425,,
262,레이크문캠핑장,경기도 포천시 영중면 성동리 341-1,경기도 포천시 영중면 호국로3296번길 31-46,11127,river,glamping,couple,3,302,38.0340161,127.2661261,,
263,시동시온캠프,경기도 남양주시 수동면 지둔리 230-8번지,경기도 남양주시 수동면 지둔로445번길 82,12028,sea,easycamping,kids,3,305,37.7271199,127.2985475,,
264,메아리 글램핑장,전라남도 여수시 소라면 사곡리 1190,전라남도 여수시 소라면 해넘이길 217,59607,mountain,camping,family,11,1112,34.791285,127.5671303,,
265,프라도 캠핑장,경기도 가평군 북면 소법리 103-2번지,경기도 가평군 북면 화악산로207번길 5-29,12404,river,glamping,couple,3,301,37.8981417,127.5603897,,
266,하너미 캠핑장,충청북도 충주시 앙성면 용대리 541번지,충청북도 충주시 앙성면 하너미로 501-3,27303,sea,easycamping,kids,8,810,37.0841157,127.7481946,,
267,달다래 캠핑장,경상남도 고성군 동해면 용정리 440,경상남도 고성군 동해면 조선특구로 1526,52919,lake,caravan,pet,17,1703,35.0279911,128.4801719,,
268,홍천강 이야기 글램핑,강원도 홍천군 서면 개야리 154-11,강원도 홍천군 서면 개야강변길 112,25100,mountain,camping,family,4,414,37.6920814,127.6251196,,
269,천사섬 캠핑&글램핑,전라남도 신안군 자은면 한운리 산 1-4번지,전라남도 신안군 자은면 한운길 159,58828,river,glamping,couple,11,1111,34.922871,126.0743607,,
270,문수산 자연휴양림 야영장,경상북도 봉화군 봉성면 우곡리 산 48-1번지 문수산자연휴양림,경상북도 봉화군 봉성면 시거리길 378,36226,sea,easycamping,kids,16,1608,36.9508666,128.8348264,,
271,아레나글램핑,강원도 홍천군 북방면 노일리 907-1번지,강원도 홍천군 북방면 노일로 344-13,25111,mountain,camping,family,4,414,37.6894598,127.7313017,,
272,숲속캠핑장,전라북도 진안군 부귀면 두남리 32-14 부귀산장,전라북도 진안군 부귀면 귀상로 792-25,55415,river,glamping,couple,9,913,35.8525114,127.4300776,,
273,캠프포레,경상남도 양산시 원동면 선리 6,경상남도 양산시 원동면 청수골길 106,50500,lake,caravan,pet,17,1709,35.5221515,129.0173334,,
274,독스아웃,경기도 남양주시 화도읍 금남리 171-7,경기도 남양주시 화도읍 북한강로 1546,12193,river,glamping,couple,3,305,37.6465043,127.3652592,,
275,캐빈,충청남도 서산시 대산읍 대로리 876-206번지,충청남도 서산시 대산읍 광암4길 129,31910,sea,easycamping,kids,7,708,36.937935,126.3821348,,
276,학교안풍경캠핑장,경기도 파주시 법원읍 웅담리 43-1 베세토 국제학교,경기도 파주시 법원읍 수작골길 273,10806,lake,caravan,pet,3,309,37.9152586,126.9088479,,
277,영월아트앤캠프장,강원도 영월군 김삿갓면 와석리 605 묵산미술박물관,강원도 영월군 김삿갓면 김삿갓로 697-6,26246,mountain,camping,family,4,420,37.0940669,128.6153313,,
278,징검다리 캠핑장,경상북도 고령군 우곡면 도진리 270 우곡초등학교 도진분교장,경상북도 고령군 우곡면 도진3길 26-13,40152,river,glamping,couple,16,1603,35.6330679,128.3672932,,
279,선라이즈글램핑,경상북도 안동시 길안면 대사리 702,경상북도 안동시 길안면 대사로 270,36736,mountain,camping,family,16,1611,36.3772885,128.9467466,,
280,모나캠핑파크 카라반,경기도 가평군 상면 행현리 224-2 독박골대청마루,경기도 가평군 상면 축령로 143,12448,river,glamping,couple,3,301,37.7747811,127.3585553,,
281,빨간집 야영장,경기도 양평군 양서면 용담리 204-4 204-5,경기도 양평군 양서면 양수로118번길 69,12584,sea,easycamping,kids,3,304,37.5480405,127.3242968,,
282,연포분교야영장,강원도 정선군 신동읍 덕천리 436-4번지 연포분교,강원도 정선군 신동읍 연포길 544-6,26136,lake,caravan,pet,4,410,37.2512698,128.5716196,,
283,구곡폭포 국민여가 캠핑장,강원도 춘천시 남산면 강촌리 432-21,강원도 춘천시 남산면 강촌구곡길 324,24465,mountain,camping,family,4,412,37.7951304,127.6094796,,
284,문경 단산 숲속 캠핑장,경상북도 문경시 문경읍 고요리 산 79-2번지,경상북도 문경시 문경읍 활공장길 585,36912,river,glamping,couple,16,1607,36.7303455,128.1741992,,
285,붉은오름 자연휴양림 숲속 야영장,제주특별자치도 서귀포시 표선면 가시리 산 158번지,제주특별자치도 서귀포시 표선면 남조로 1487-73,63622,lake,caravan,pet,18,1802,33.3988071,126.7063341,,
286,가로림글램핑 주식회사,충청남도 서산시 팔봉면 호리 562-4,충청남도 서산시 팔봉면 범머리길 80,31921,mountain,camping,family,7,708,36.8345986,126.3296187,,
287,양양오색 휴랜드 야영장,강원도 양양군 서면 오색리 187,강원도 양양군 서면 관대문길 99,25033,river,glamping,couple,4,404,38.0733011,128.4899557,,
288,아라미르글램핑,인천광역시 강화군 삼산면 석모리 18-2,인천광역시 강화군 삼산면 삼산북로 332,23005,sea,easycamping,kids,2,201,37.7007569,126.3356111,,
289,행복한 체험 캠핑장,경기도 김포시 운양동 48-1번지,경기도 김포시 금포로 1196 (운양동),10075,lake,caravan,pet,3,316,37.6511744,126.7008752,,
290,보성강 용정권역 어울마당 야영장,전라남도 보성군 미력면 화방리 614-1번지,전라남도 보성군 미력면 보성강로 356-30,59442,mountain,camping,family,11,1109,34.8111474,127.1162133,,
291,우니메이카 철원점,강원도 철원군 근남면 잠곡리 247,강원도 철원군 근남면 하오재로 1656-4,24065,river,glamping,couple,4,411,38.202137,127.4725729,,
292,별내린캠핑,경기도 남양주시 수동면 외방리 409-4,경기도 남양주시 수동면 축령산로 121-1,12025,sea,easycamping,kids,3,305,37.7397877,127.3055806,,
293,스톤 캠핑장,인천광역시 강화군 하점면 신삼리 177-3,인천광역시 강화군 하점면 고려산로377번길 33,23016,lake,caravan,pet,2,201,37.755149,126.4077036,,
294,아틴마루 야영장,경기도 양평군 서종면 명달리 401-4,경기도 양평군 서종면 가마봉1길 18-27,12500,mountain,camping,family,3,304,37.6197773,127.4341414,,
295,보물나라캠프,경기도 연천군 신서면 내산리 150-1,경기도 연천군 신서면 동내로 1359,11002,river,glamping,couple,3,310,38.1536961,127.1431863,,
296,운악184,경기도 포천시 화현면 화현리 1152,경기도 포천시 화현면 화동로184번길 35-1,11123,lake,caravan,pet,3,302,37.8839958,127.3068263,,
297,그리심 글램핑장,충청남도 공주시 정안면 어물리 295,충청남도 공주시 정안면 어물길 395,32511,mountain,camping,family,7,701,36.5890071,127.1478434,,
298,라온글램핑오토캠핑장,경기도 포천시 영중면 성동리 308-1,경기도 포천시 영중면 성장로55번길 15,11127,river,glamping,couple,3,302,38.0282021,127.2661352,,
299,꾸네오 캠핑장,전라북도 순창군 금과면 매우리 133,전라북도 순창군 금과면 매우1길 27-1,56053,sea,easycamping,kids,9,907,35.3416677,127.0869722,,
300,(주)백동소풍가는길,경상남도 양산시 소주동 산 127-1,경상남도 양산시 백동길 128 (소주동),50517,lake,caravan,pet,17,1709,35.4042635,129.143686,,
301,자연과힐링,강원도 횡성군 청일면 갑천리 240,강원도 횡성군 청일면 봉덕로299번길 65,25256,mountain,camping,family,4,416,37.5754212,128.1831836,,
302,삼워리농원,충청남도 부여군 은산면 은산리 205-1,충청남도 부여군 은산면 충절로2883번길 13,33112,river,glamping,couple,7,707,36.3126851,126.8456785,,
303,사발소캠핑장,강원도 횡성군 갑천면 추동리 81,강원도 횡성군 갑천면 어답산로 60-15,25252,sea,easycamping,kids,4,416,37.5690162,128.0413024,,
304,영흥도십리포캠핑장,인천광역시 옹진군 영흥면 내리 674 -4,인천광역시 옹진군 영흥면 영흥북로 360,23118,river,glamping,couple,2,202,37.2688539,126.4708583,,
305,몽리치,경기도 가평군 가평읍 개곡리 156,경기도 가평군 가평읍 당목가일길 574,12410,lake,caravan,pet,3,301,37.8745443,127.5717013,,
306,스테이 272,경기도 이천시 마장면 이치리 29,경기도 이천시 마장면 이장로60번길 34-42,17385,mountain,camping,family,3,319,37.2593876,127.3854043,,
307,오아시스정글,강원도 인제군 인제읍 귀둔리 1058,강원도 인제군 인제읍 필례약수길 76-3,24643,river,glamping,couple,4,409,38.0429159,128.3913301,,
308,캠프여주,경기도 여주시 북내면 중암리 377 여주관광농원,경기도 여주시 북내면 중암2길 19-22,12614,sea,easycamping,kids,3,318,37.3570615,127.7103466,,
309,달빛정원글램핑&카라반,경기도 가평군 설악면 가일리 234-4,경기도 가평군 설악면 유명산길 118,12473,mountain,camping,family,3,301,37.5928132,127.4875971,,
310,라이프위드도그,강원도 인제군 인제읍 원대리 644 인제모험레포츠연수원,강원도 인제군 인제읍 자작나무숲길 1112,24639,river,glamping,couple,4,409,38.0015328,128.2312419,,
311,평화숲,충청남도 청양군 대치면 시전리 189,충청남도 청양군 대치면 비끼내길 171-6,33342,lake,caravan,pet,7,713,36.4785312,126.8666027,,
312,물바람캠핑장,전라북도 완주군 동상면 수만리 750,전라북도 완주군 동상면 송광수만로 1079-61,55344,mountain,camping,family,9,908,35.9285825,127.2634431,,
313,을왕리 솔트 캠핑장,인천광역시 중구 을왕동 810-95,인천광역시 중구 용유서로423번길 38 (을왕동),22383,river,glamping,couple,2,203,37.4572656,126.3692905,,
314,나무야나무야캠핑장,충청북도 괴산군 연풍면 유하리 196-9 하프타임스쿨2막학교,충청북도 괴산군 연풍면 유상길 85,28011,sea,easycamping,kids,8,801,36.7800247,127.9758649,,
315,솔부엉이캠핑장,충청북도 음성군 음성읍 사정리 949,충청북도 음성군 음성읍 음성로826번길 6-9,27684,lake,caravan,pet,8,806,36.9727213,127.6254548,,
316,드론스포츠코리아,전라남도 고흥군 금산면 대흥리 1176 금산종합고등학교,전라남도 고흥군 금산면 돈청길 25-17,59564,mountain,camping,family,11,1102,34.467271,127.1298698,,
317,영흥소장골야영장,인천광역시 옹진군 영흥면 외리 284-4,인천광역시 옹진군 영흥면 영흥남로191번길 58-76,23121,river,glamping,couple,2,202,37.2479998,126.4544618,,
318,산속에 관광농원,경기도 동두천시 안흥동 179-14,경기도 동두천시 안흥로26번길 283 (안흥동),11304,lake,caravan,pet,3,317,37.9389126,127.0372393,,
319,무수캠핑장,경기도 평택시 포승읍 홍원리 196-14,경기도 평택시 포승읍 홍원길 14,17813,mountain,camping,family,3,320,37.0176454,126.8699741,,
320,남해 힐링국민여가캠핑장,경상남도 남해군 이동면 신전리 743-3,경상남도 남해군 이동면 성남로 79-14,52432,river,glamping,couple,17,1705,34.7782902,127.9519884,,
321,담터라온글램핑,강원도 철원군 동송읍 상노리 859-7,강원도 철원군 동송읍 담터길 352,24026,mountain,camping,family,4,411,38.1615699,127.1898168,,
322,화순돔아일랜드,전라남도 화순군 화순읍 벽라리 578-3,전라남도 화순군 화순읍 학포로 2653-20,58149,river,glamping,couple,11,1120,35.0461704,126.9610017,,
323,라라캠핑장,경상남도 양산시 원동면 원리 13,경상남도 양산시 원동면 원동로 1899-30,50587,sea,easycamping,kids,17,1709,35.3960838,128.9242241,,
324,동산오토캠핑장,경상북도 군위군 부계면 동산리 728,경상북도 군위군 부계면 원효길 40,39065,sea,easycamping,kids,16,1605,36.0483593,128.6578512,,
325,아름다운 농원,경기도 포천시 영북면 자일리 1027-32,경기도 포천시 영북면 북원로 281,11102,lake,caravan,pet,3,302,38.122285,127.268186,,
326,정선 도원펜션&캠핑장,강원도 정선군 북평면 나전리 257-1,강원도 정선군 북평면 어도원길 165,26100,mountain,camping,family,4,410,37.4391699,128.6252662,,
327,황우거주식회사,강원도 횡성군 공근면 창봉리 73-1,강원도 횡성군 공근면 창봉1길 117,25203,river,glamping,couple,4,416,37.5637417,127.944292,,
328,별밤캠핑장,전라남도 나주시 다시면 송촌리 산 2-14 별밤캠핑장,전라남도 나주시 다시면 고막원길 20,58286,lake,caravan,pet,11,1106,35.0274781,126.6087265,,
329,종이섬 야영장,경상남도 통영시 용남면 지도리 250-1 원평초교지도분교,경상남도 통영시 용남면 지도해안로 303,53031,mountain,camping,family,17,1714,34.9145571,128.4721519,,
330,폴라데이 캠핑장,경기도 포천시 군내면 구읍리 456-3,경기도 포천시 군내면 선정비로 58,11152,sea,easycamping,kids,3,302,37.8866931,127.2164105,,
331,다온세울터 야영장,충청남도 홍성군 서부면 판교리 645-95,충청남도 홍성군 서부면 홍남서로362번길 46,32205,lake,caravan,pet,7,714,36.5395106,126.513744,,
332,군위전투전승기념공원 캠핑장,경상북도 군위군 고로면 화수리 698-3번지 군위전투전승기념공원,경상북도 군위군 고로면 동부로 81,39057,mountain,camping,family,16,1605,36.1224164,128.7548793,,
333,소요별앤숲테마파크,경기도 동두천시 상봉암동 15 소요 별앤숲 테마파크,경기도 동두천시 평화로2922번길 76,11307,sea,easycamping,kids,3,317,37.9495215,127.0654972,,
334,범도아리아글램핑,경상남도 밀양시 단장면 범도리 1100-2 외 1필지,경상남도 밀양시 단장면 아불1길 13,50418,lake,caravan,pet,17,1706,35.5222173,128.9077694,,
335,이화만리 캠핑 체험마을,경상북도 김천시 농소면 봉곡리 1214,경상북도 김천시 농소면 벽봉로 1651,39678,mountain,camping,family,16,1606,36.071509,128.1773789,,
336,별똥별글램핑&카라반,경기도 가평군 설악면 가일리 234-2 입구지노래방,경기도 가평군 설악면 유명산길 124-12,12473,river,glamping,couple,3,301,37.5924335,127.4866779,,
337,(주)두산개발 별고을테마파크,경상북도 성주군 선남면 도성리 산 15-13,경상북도 성주군 선남면 도성3길 22-27,40047,sea,easycamping,kids,16,1610,35.8836371,128.3706639,,
338,성주선바위캠핑장,경상북도 성주군 금수면 영천리 1075,경상북도 성주군 금수면 성주로 15-4,40058,lake,caravan,pet,16,1610,35.9063106,128.0603386,,
339,좋은 카라반,경상남도 밀양시 삼랑진읍 행곡리 산 11-1,경상남도 밀양시 삼랑진읍 행곡3길 65-34,50466,mountain,camping,family,17,1706,35.4307063,128.909348,,
340,가고파캠핑장,경상남도 산청군 시천면 내공리 627-2 두류연수원,경상남도 산청군 시천면 지리산대로1478번길 31-10,52238,sea,easycamping,kids,17,1708,35.2403857,127.8179245,,
341,산내자연캠프,경상북도 경주시 산내면 대현리 1980,경상북도 경주시 산내면 대현동골길 80-19,38187,mountain,camping,family,16,1602,35.6926033,129.0581702,,
342,성북구 삼척수련원,강원도 삼척시 근덕면 상맹방리 266-7,강원도 삼척시 근덕면 상맹방길 398-4,25932,river,glamping,couple,4,406,37.3977025,129.2060923,,
343,돈내미농장,경기도 동두천시 탑동동 432,경기도 동두천시 천보산로456번길 49-1 (탑동동),11360,lake,caravan,pet,3,317,37.8737348,127.1121884,,
344,춘천별빛캠핑장,강원도 춘천시 동내면 사암리 1080-11,강원도 춘천시 동내면 원창고개길 96-3,24408,mountain,camping,family,4,412,37.8173671,127.7667862,,
345,용인대장금파크캠핑장,경기도 용인시 처인구 백암면 용천리 781,경기도 용인시 처인구 백암면 용천드라마길 25-10,17182,river,glamping,couple,3,307,37.1200207,127.3401086,,
346,주식회사비브릿지레저산업,강원도 영월군 김삿갓면 주문리 6-1,강원도 영월군 김삿갓면 영월동로 2295-12,26246,sea,easycamping,kids,4,420,37.1204726,128.6284781,,
347,솔미캠핑장,강원도 정선군 임계면 송계리 882-8,강원도 정선군 임계면 반천고양로 12,26109,lake,caravan,pet,4,410,37.4963421,128.8158493,,
348,영월한반도캠핑장,강원도 영월군 한반도면 후탄리 555-2 외 4필지,강원도 영월군 한반도면 후탄로 826,26214,mountain,camping,family,4,420,37.2153573,128.3559955,,
349,답게,강원도 화천군 사내면 삼일리 584,강원도 화천군 사내면 화악산로 621-6,24161,river,glamping,couple,4,415,38.0374352,127.5141203,,
350,블루밍,경상북도 포항시 남구 장기면 두원리 35,경상북도 포항시 남구 장기면 동해안로 2816,37947,sea,easycamping,kids,16,1621,35.8504317,129.5192721,,
351,수림 휴원,충청남도 보령시 웅천읍 성동리 6-3 수림장식당,충청남도 보령시 웅천읍 내성1길 117,33503,lake,caravan,pet,7,706,36.2472168,126.6284003,,
352,학현아름마을오토캠핑장,충청북도 제천시 청풍면 학현리 368-6,충청북도 제천시 청풍면 학현소야로 206,27215,river,glamping,couple,8,807,37.0081019,128.2039124,,
353,스카이랜드카라반리조트,인천광역시 강화군 삼산면 매음리 1056-58,인천광역시 강화군 삼산면 삼산남로 991,23007,sea,easycamping,kids,2,201,37.6646,126.3404091,,
354,강릉 금진리321카라반,강원도 강릉시 옥계면 금진리 321,강원도 강릉시 옥계면 헌화로 247-11,25633,lake,caravan,pet,4,401,37.6373363,129.043739,,
355,(주)온어스빌리지 야영장,전라남도 곡성군 옥과면 합강리 499-1,전라남도 곡성군 옥과면 월파로 295,57508,mountain,camping,family,11,1103,35.3169841,127.1697162,,
356,팔봉참살이오토캠핑장,강원도 홍천군 서면 팔봉리 814-2,강원도 홍천군 서면 오도치길 32,25101,river,glamping,couple,4,414,37.6822509,127.7004262,,
357,백자동 캠핑장,경기도 가평군 북면 도대리 507-3,경기도 가평군 북면 가화로 2575-22,12401,sea,easycamping,kids,3,301,37.9646957,127.4641037,,
358,리썸카라반,제주특별자치도 서귀포시 대정읍 일과리 1303-6 일과1리대수동경로당,제주특별자치도 서귀포시 대정읍 일과대수로27번길 10,63504,lake,caravan,pet,18,1802,33.2392238,126.2303265,,
359,귀촌 관광농원,강원도 횡성군 갑천면 병지방리 279,강원도 횡성군 갑천면 병지방길 219-6,25251,mountain,camping,family,4,416,37.6168549,128.0810377,,
360,천왕산 가족캠핑장,서울특별시 구로구 항동 149-1,서울특별시 구로구 연동로12길 149 (항동),8368,river,glamping,couple,1,102,37.4798963,126.8315028,,
361,광덕그린농원 야영장,강원도 화천군 사내면 광덕리 1052-3,강원도 화천군 사내면 검단길 213-31,24150,lake,caravan,pet,4,415,38.1105886,127.4692396,,
362,늘솔길 캠핑장,강원도 춘천시 동면 품걸리 75-1,강원도 춘천시 동면 야시대로 1502,24211,mountain,camping,family,4,412,37.8567448,127.9361298,,
363,무주덕유산계곡글램핑,전라북도 무주군 설천면 삼공리 391-2,전라북도 무주군 설천면 구천동1로 44,55557,lake,caravan,pet,9,905,35.9041723,127.7767315,,
364,매미캠프,경상남도 거제시 장목면 대금리 24,경상남도 거제시 장목면 옥포대첩로 1279-3,53202,mountain,camping,family,17,1701,34.9661872,128.7033627,,
365,모모카라반,인천광역시 옹진군 영흥면 내리 1542-10,인천광역시 옹진군 영흥면 영흥로757번길 176,23117,sea,easycamping,kids,2,202,37.2688539,126.4708583,,
366,올레야영장,경상북도 포항시 북구 청하면 월포리 88,경상북도 포항시 북구 청하면 해안로2428번길 14,37517,lake,caravan,pet,16,1621,36.2077247,129.3711123,,
367,거창서핑파크,경상남도 거창군 위천면 장기리 140,경상남도 거창군 위천면 거차1길 23-18,50103,river,glamping,couple,17,1702,35.7473124,127.8365074,,
368,강나루야영장,경기도 파주시 적성면 어유지리 667-2,경기도 파주시 적성면 어삼로 243,10804,sea,easycamping,kids,3,309,38.0040255,126.9710665,,
369,가평무릉도원캠핑장,경기도 가평군 상면 임초리 600,경기도 가평군 상면 임초밤안골로 207,12447,lake,caravan,pet,3,301,37.75176,127.3680935,,
370,산내956,경상북도 경주시 산내면 대현리 산 480-4,경상북도 경주시 산내면 문복로 956,38187,mountain,camping,family,16,1602,35.7136361,129.0549029,,
371,동두천 자연휴양림,경기도 동두천시 탑동동 산 16 동두천 자연휴양림,경기도 동두천시 탑동가산로 1,11322,sea,easycamping,kids,3,317,37.8922564,127.1353273,,
372,축령산 오션파크,경기도 가평군 상면 행현리 910,경기도 가평군 상면 축령로 296,12448,lake,caravan,pet,3,301,37.7738493,127.343003,,
373,원주웰빙캠프,강원도 원주시 신림면 황둔리 1547,강원도 원주시 신림면 신림황둔로 714-2,26508,mountain,camping,family,4,408,37.2496703,128.1414079,,
374,몽골캠핑장,강원도 홍천군 내면 율전리 728,강원도 홍천군 내면 밤바치길 737,25169,sea,easycamping,kids,4,414,37.7971401,128.343343,,
375,몽산포힐링캠핑장,충청남도 태안군 남면 신장리 산 113-46,충청남도 태안군 남면 몽산포길 63-13,32153,lake,caravan,pet,7,702,36.6707358,126.2901333,,
376,도명산캠핑장,충청북도 괴산군 청천면 고성리 73,충청북도 괴산군 청천면 고성4길 4-2,28061,mountain,camping,family,8,801,36.6598966,127.7845398,,
377,연천리버힐캠핑장,경기도 연천군 미산면 마전리 237-2,경기도 연천군 미산면 숭의전로 520-21,11047,river,glamping,couple,3,310,38.0252489,126.983204,,
378,양주 패밀리 캠핑장,경기도 양주시 삼숭동 542-1,경기도 양주시 부흥로 2191-46 (삼숭동),11477,sea,easycamping,kids,3,306,37.8090146,127.0956985,,
379,산들래 야영장,경기도 화성시 비봉면 자안리 147-4,경기도 화성시 비봉면 자청로207번길 21-71,18293,lake,caravan,pet,3,311,37.2103269,126.8932238,,
380,글램비글램핑,경기도 화성시 서신면 제부리 20-15 일대,경기도 화성시 서신면 해안길 64,18553,river,glamping,couple,3,311,37.1702587,126.6287823,,
381,백미리 희망캠핑장,경기도 화성시 서신면 백미리 266-8,경기도 화성시 서신면 백미길 210-24,18556,sea,easycamping,kids,3,311,37.1472785,126.6828597,,
382,산내들 야영장,경기도 화성시 비봉면 청요리 692,경기도 화성시 비봉면 자청로207번길 21-60,18293,lake,caravan,pet,3,311,37.2095759,126.8943298,,
383,풀내음캠핑장,경기도 화성시 봉담읍 상기리 449,경기도 화성시 봉담읍 도곡1길 20-21,18333,mountain,camping,family,3,311,37.1999796,126.9202496,,
384,엘리캠핑장,경기도 화성시 비봉면 양노리 373,경기도 화성시 비봉면 미륵골로 108-17,18284,river,glamping,couple,3,311,37.2264139,126.8698412,,
385,사강스마트팜캠핑장,경기도 화성시 송산면 사강리 337-1,경기도 화성시 송산면 송산포도로 194,18551,sea,easycamping,kids,3,311,37.2166787,126.7276177,,
386,운악산 글램핑,경기도 포천시 화현면 화현리 728,경기도 포천시 화현면 화동로432번길 92-131,11123,mountain,camping,family,3,302,37.9009055,127.3112092,,
387,자작도캠핑장,강원도 고성군 죽왕면 문암진리 466-1,강원도 고성군 죽왕면 삼포해변길 94,24752,sea,easycamping,kids,4,403,38.3027743,128.5421095,,
388,캠핑느루,강원도 고성군 토성면 원암리 415,강원도 고성군 토성면 미시령폭포길 64,24768,lake,caravan,pet,4,403,38.2090187,128.4819312,,
389,변산해수욕장 야영장,전라북도 부안군 변산면 대항리 603,전라북도 부안군 변산면 변산로 2100,56342,mountain,camping,family,9,906,35.6839353,126.5469198,,
390,가온오토캠핑장,경상북도 포항시 북구 죽장면 일광리 398-2,경상북도 포항시 북구 죽장면 새마을로 3351,37508,river,glamping,couple,16,1621,36.1476008,129.0776641,,
391,월성자연캠핑야영장,경상남도 거창군 북상면 월성리 1730,경상남도 거창군 북상면 덕유월성로 1170-19,50100,lake,caravan,pet,17,1702,35.7690355,127.7196292,,
392,산내들캠프,경상북도 경주시 산내면 대현리 87-1,경상북도 경주시 산내면 대현길 405,38187,mountain,camping,family,16,1602,35.699771,129.0779199,,
393,불영계곡캠핑장,경상북도 울진군 울진읍 대흥리 75 불영계곡캠핑장,경상북도 울진군 울진읍 불영계곡로 2758,36330,river,glamping,couple,16,1618,36.965985,129.3204557,,
394,박달재초록꿈캠핑체험장,충청북도 제천시 백운면 덕동리 30-2,충청북도 제천시 백운면 구학산로 690,27100,sea,easycamping,kids,8,807,37.1862629,127.9933425,,
395,하늘아래 야영장,대구광역시 수성구 범물동 1161 외 7필지,대구광역시 수성구 진밭길 420 (범물동),42240,mountain,camping,family,12,1201,35.7982968,128.6739433,,
396,공현진2리해변야영장,강원도 고성군 죽왕면 공현진리 431-12 공현진2리해변관리사무소,강원도 고성군 죽왕면 공현진해변길 108,24745,sea,easycamping,kids,4,403,38.3571367,128.5093914,,
397,가진리해변야영장,강원도 고성군 죽왕면 가진리 산 1-10,강원도 고성군 죽왕면 가진해변길 138,24744,lake,caravan,pet,4,403,38.3668771,128.5084962,,
398,자작도해변야영장,강원도 고성군 죽왕면 문암진리 460-9 자작도관리실,강원도 고성군 죽왕면 자작도선사길 105-1,24752,lake,caravan,pet,4,403,38.3027743,128.5421095,,
399,백도해변야영장,강원도 고성군 죽왕면 문암진리 19-3,강원도 고성군 죽왕면 문암항길 133,24752,mountain,camping,family,4,403,38.3027743,128.5421095,,
400,그린애캠핑장,강원도 원주시 호저면 산현리 513-8,강원도 원주시 호저면 칠봉로 604-5,26300,river,glamping,couple,4,408,37.4402846,127.8906081,,
401,경주 캠핑573,경상북도 경주시 현곡면 래태리 573-1,경상북도 경주시 현곡면 새안현로 507-19,38045,lake,caravan,pet,16,1602,35.9158796,129.1497342,,
402,솔내음 캠핑장,경기도 수원시 권선구 금곡동 787-2,경기도 수원시 권선구 칠보로 2 (금곡동),16381,mountain,camping,family,3,321,37.2670807,126.9387114,,
403,라라캠핑장,경상북도 경주시 양남면 신대리 460,경상북도 경주시 양남면 서왕길 381-14,38221,river,glamping,couple,16,1602,35.6877252,129.3963397,,
404,태그하우스,인천광역시 강화군 길상면 동검리 262,인천광역시 강화군 길상면 동검길154번길 24-19,23053,mountain,camping,family,2,201,37.5923717,126.5072848,,
405,알로프랑스,전라북도 무주군 무풍면 삼거리 353-1,전라북도 무주군 무풍면 구천동로 559-12,55563,sea,easycamping,kids,9,905,35.9015817,127.8113203,,
406,야한 캠핑장,경기도 이천시 마장면 이평리 6,경기도 이천시 마장면 이섭대천로155번길 100,17385,lake,caravan,pet,3,319,37.2201424,127.3913207,,
407,파크킹,경상북도 김천시 어모면 중왕리 472-23,경상북도 김천시 어모면 은림로 62-11,39504,mountain,camping,family,16,1606,36.1796019,128.1253183,,
408,영흥도어울림캠핑장,인천광역시 옹진군 영흥면 내리 1327-93,인천광역시 옹진군 영흥면 영흥서로 452-67,23117,sea,easycamping,kids,2,202,37.2688539,126.4708583,,
409,홍천 반딧불캠핑장,강원도 홍천군 화촌면 구성포리 1583-4,강원도 홍천군 화촌면 도심리길 181,25156,lake,caravan,pet,4,414,37.7863754,127.8961491,,
410,한별 도그파크,경상남도 함안군 법수면 대송리 10-2,경상남도 함안군 법수면 이묵골로 135,52056,mountain,camping,family,17,1716,35.3365448,128.3562289,,
411,남해금산오토캠핑장,경상남도 남해군 상주면 상주리 845,경상남도 남해군 상주면 남해대로796번길 54,52440,sea,easycamping,kids,17,1705,34.7355131,127.9940505,,
412,백담한계캠핑장,강원도 인제군 북면 한계리 1105-8,강원도 인제군 북면 고원통로 107,24607,lake,caravan,pet,4,409,38.1227531,128.3023006,,
413,에코팜 부설 오토캠핑장,경상북도 포항시 북구 죽장면 합덕리 276,경상북도 포항시 북구 죽장면 합석길 7,37504,mountain,camping,family,16,1621,36.2028136,129.0958963,,
414,또바기 스파글램핑,경기도 가평군 북면 목동리 592-1,경기도 가평군 북면 멱골로 205-10,12403,sea,easycamping,kids,3,301,37.9082938,127.5727259,,
415,바다야영장,전라북도 부안군 진서면 곰소리 767,전라북도 부안군 진서면 곰소항길 22-25,56346,mountain,camping,family,9,906,35.5890549,126.6024199,,
416,봉즈살롱,강원도 횡성군 서원면 석화리 530,강원도 횡성군 서원면 서원서로102번길 3-18,25202,river,glamping,couple,4,416,37.4806886,127.8253779,,
417,뇌운계곡글램핑,강원도 평창군 평창읍 뇌운리 5-1,강원도 평창군 평창읍 뇌운계곡로 659-6,25368,sea,easycamping,kids,4,413,37.4157259,128.3819175,,
418,별난독서문화체험장,경기도 파주시 법원읍 금곡리 336-5,경기도 파주시 법원읍 술이홀로 1315,10806,lake,caravan,pet,3,309,37.8845662,126.8775661,,
419,충주 비내캠프 체험학습장,충청북도 충주시 앙성면 목미리 89-2 강천초등학교,충청북도 충주시 앙성면 학교말2길 50,27300,mountain,camping,family,8,810,37.1629592,127.7520725,,
420,힐사이드 IN 가평,경기도 가평군 북면 화악리 209-8,경기도 가평군 북면 화악지암길 360,12402,lake,caravan,pet,3,301,37.9540707,127.5812911,,
421,성요셉치유마을 야영장,경상북도 문경시 가은읍 갈전리 605-3,경상북도 문경시 가은읍 은성로 796-13,36997,river,glamping,couple,16,1607,36.6337978,128.062009,,
422,FLOW 11 야영장,경상남도 창녕군 길곡면 오호리 724,경상남도 창녕군 길곡면 내외동길 11,50362,sea,easycamping,kids,17,1712,35.3994735,128.5389346,,
423,에프앤에프캠핑,충청북도 제천시 봉양읍 명암리 243,충청북도 제천시 봉양읍 명암로 635,27108,lake,caravan,pet,8,807,37.1947167,128.1482148,,
424,우니메이카 태안점,충청남도 태안군 소원면 신덕리 산 32-1,충청남도 태안군 소원면 산간이길 158-24,32120,mountain,camping,family,7,702,36.7789894,126.1896579,,
425,메이플,경기도 포천시 이동면 장암리 636-11,경기도 포천시 이동면 화동로 2236-25,11111,river,glamping,couple,3,302,38.0439106,127.3747497,,
426,파인밸리펜션 글램핑 2호점,경기도 포천시 화현면 명덕리 261-1,경기도 포천시 화현면 봉화로 382-1,11125,lake,caravan,pet,3,302,37.8828284,127.2782342,,
427,숲이야기,강원도 춘천시 남산면 백양리 166,강원도 춘천시 남산면 서백길 691-77,24464,mountain,camping,family,4,412,37.8000751,127.5885175,,
428,JB캠핑하우스,경기도 파주시 적성면 구읍리 556,경기도 파주시 적성면 감악산로 1270-74,10802,river,glamping,couple,3,309,37.9622789,126.9267962,,
429,두미리관광농원,강원도 홍천군 서면 두미리 산 204,강원도 홍천군 서면 개야로 304-229,25101,sea,easycamping,kids,4,414,37.6770907,127.6437714,,
430,가평청춘글램핑&카라반,경기도 가평군 가평읍 산유리 99-3,경기도 가평군 가평읍 호반로 1700,12429,mountain,camping,family,3,301,37.7466945,127.5125221,,
431,밤벌캠핑장,경기도 가평군 설악면 가일리 201-2,경기도 가평군 설악면 어비산길 15-23,12473,river,glamping,couple,3,301,37.601201,127.4946732,,
432,가리벨리캠핑장,강원도 인제군 인제읍 가리산리 334-1,강원도 인제군 인제읍 대목리길 137,24643,sea,easycamping,kids,4,409,38.0733,128.338384,,
433,에이미캠핑장,강원도 영월군 김삿갓면 진별리 592-3 아프리카미술박물관,강원도 영월군 김삿갓면 영월동로 1107-1,26245,lake,caravan,pet,4,420,37.131922,128.5353313,,
434,단아한,전라북도 순창군 팔덕면 산동리 345-1,전라북도 순창군 팔덕면 산동신흥길 6,56021,mountain,camping,family,9,907,35.3893095,127.0923432,,
435,숲속의아침,강원도 영월군 무릉도원면 법흥리 538,강원도 영월군 무릉도원면 무릉법흥로 1115,26201,river,glamping,couple,4,420,37.35619,128.2777015,,
436,땡땡이글램핑,전라남도 장흥군 대덕읍 연지리 202-1,전라남도 장흥군 대덕읍 신흥1길 5-55,59352,sea,easycamping,kids,11,1117,34.5049861,126.9104329,,
437,예손캠핑장,경상북도 고령군 덕곡면 가륜리 257,경상북도 고령군 덕곡면 가륜장길 20-7,40126,river,glamping,couple,16,1603,35.7923127,128.213138,,
438,아리아리 숲속의 야영장,강원도 영월군 주천면 신일리 1605-5,강원도 영월군 주천면 솔치로 240-70,26205,lake,caravan,pet,4,420,37.2635488,128.2128418,,
439,우니메이카 단양점,충청북도 단양군 가곡면 어의곡리 95-2,충청북도 단양군 가곡면 새밭로 820,27023,river,glamping,couple,8,802,36.9884145,128.4572459,,
440,더오창호,충청북도 청주시 청원구 오창읍 성산리 620-1,충청북도 청주시 청원구 오창읍 화복로 780-106,28107,sea,easycamping,kids,8,809,36.7516376,127.4152671,,
441,월악파머스캠핑장,충청북도 제천시 덕산면 월악리 597,충청북도 제천시 덕산면 월악산로 450-5,27225,mountain,camping,family,8,807,36.8927395,128.1386431,,
442,호미곶유니의바다 카라반캠핑장,경상북도 포항시 남구 호미곶면 강사리 772-3,경상북도 포항시 남구 호미곶면 해맞이로46번길 134,37929,river,glamping,couple,16,1621,36.0588004,129.5751664,,
443,림스 글램핑,전라남도 강진군 강진읍 임천리 667,전라남도 강진군 강진읍 해강로 1038-30,59247,sea,easycamping,kids,11,1101,34.6033383,126.7369805,,
444,캠핑679,경기도 가평군 북면 목동리 679-3,경기도 가평군 북면 화악산로 162-21,12403,lake,caravan,pet,3,301,37.896591,127.56108,,
445,다시캠핑장,경상북도 고령군 덕곡면 노리 307-1,경상북도 고령군 덕곡면 덕운로 1043-64,40126,mountain,camping,family,16,1603,35.7980611,128.1947521,,
446,비토애글램핑2호점(BITOLUV GLAMPING Season2),경상남도 사천시 서포면 비토리 205-2,경상남도 사천시 서포면 토끼로 217,52545,sea,easycamping,kids,17,1707,34.9818624,127.9645117,,
447,둥지캠핑장,충청북도 보은군 내북면 화전리 355-7 주택,충청북도 보은군 내북면 회인내북로 874,28906,lake,caravan,pet,8,803,36.5662698,127.6493128,,
448,담터오지글램핑,강원도 철원군 동송읍 상노리 859-10,강원도 철원군 동송읍 담터길 350,24026,mountain,camping,family,4,411,38.1642259,127.1889018,,
449,아이프로방스,충청북도 청주시 상당구 미원면 운암리 229-3,충청북도 청주시 상당구 미원면 남부로 6774,28200,sea,easycamping,kids,8,809,36.6130913,127.6788986,,
450,이천 인휴 글램핑,경기도 이천시 모가면 진가리 581,경기도 이천시 모가면 진상미로1385번길 221-6,17408,lake,caravan,pet,3,319,37.1710575,127.4763753,,
451,천지 글램핑,전라남도 순천시 상사면 비촌리 438-10,전라남도 순천시 상사면 선동길 112,57920,mountain,camping,family,11,1110,34.9021667,127.4337655,,
452,웰니스 권역 야영장,충청남도 공주시 우성면 내산리 446-5,충청남도 공주시 우성면 무성산로 296,32527,river,glamping,couple,7,701,36.5011116,127.0888602,,
453,주문진해수욕장 일반야영장,강원도 강릉시 주문진읍 향호리 8-17,강원도 강릉시 주문진읍 주문북로 210,25404,sea,easycamping,kids,4,401,37.8996511,128.7843327,,
454,옥계해수욕장 야영장,강원도 강릉시 옥계면 금진리 799-16,강원도 강릉시 옥계면 금진솔밭길 104-29,25633,mountain,camping,family,4,401,37.6276217,129.0473711,,
455,반려동물힐링센터 글램핑,경상북도 문경시 문경읍 진안리 350-4,경상북도 문경시 문경읍 문경대로 2430,36919,sea,easycamping,kids,16,1607,36.7426122,128.0815538,,
456,사천 케이블카 자연휴양림,경상남도 사천시 실안동 산 173,경상남도 사천시 실안길 242-45 (실안동),52554,mountain,camping,family,17,1707,34.9501237,128.058364,,
457,느티담길 캠핑장,경상북도 군위군 산성면 운산리 676 야영장,경상북도 군위군 산성면 부흥로 362-33,39059,river,glamping,couple,16,1605,36.1177945,128.6907481,,
458,노마드글램핑,경기도 가평군 상면 원흥리 229-1,경기도 가평군 상면 원흥길 46-12,12442,sea,easycamping,kids,3,301,37.821167,127.323492,,
459,대룡산 오토캠핑장,강원도 홍천군 북방면 북방리 942,강원도 홍천군 북방면 성동로 1612,25113,mountain,camping,family,4,414,37.8262059,127.8374134,,
460,배론의아침,충청북도 제천시 봉양읍 구학리 448,충청북도 제천시 봉양읍 배론성지길 167-52,27110,river,glamping,couple,8,807,37.1531034,128.0977797,,
461,구화산BBQ,경상북도 김천시 교동 253,경상북도 김천시 구화산길 64-7 (교동),39522,sea,easycamping,kids,16,1606,36.1469581,128.1026667,,
462,노문 야영장,경기도 양평군 서종면 노문리 418-1,경기도 양평군 서종면 갈문길 22-17,12500,lake,caravan,pet,3,304,37.6460433,127.4332645,,
463,신두57캠핑장B구역,충청남도 태안군 원북면 신두리 1221-57,충청남도 태안군 원북면 신두해변길 201-31,32108,river,glamping,couple,7,702,36.8393899,126.1908166,,
464,부엉캠핑클럽,전라북도 완주군 운주면 산북리 22,전라북도 완주군 운주면 산북신복길 125-72,55300,sea,easycamping,kids,9,908,36.0863684,127.353951,,
465,약수동산,경기도 양평군 옥천면 옥천리 936,경기도 양평군 옥천면 약수동산길 85,12507,lake,caravan,pet,3,304,37.5076426,127.4551846,,
466,소풍,경상북도 경주시 천북면 화산리 145-1 경주학생예술체험관,경상북도 경주시 천북면 새터흥림길 1-27,38034,river,glamping,couple,16,1602,35.9228984,129.290073,,
467,보라보라카라반 캠핑장,경상북도 포항시 북구 청하면 용두리 104-20,경상북도 포항시 북구 청하면 해안로 2264,37517,sea,easycamping,kids,16,1621,36.1952794,129.3725764,,
468,봉황자연휴양림 숲속야영장,충청북도 충주시 중앙탑면 봉황리 산 17-1 봉황자연휴양림,충청북도 충주시 중앙탑면 수룡봉황길 540,27446,lake,caravan,pet,8,810,37.0576704,127.8269148,,
469,발자크펜션캠핑장,충청북도 제천시 백운면 덕동리 87-4,충청북도 제천시 백운면 덕동로 207-3,27101,mountain,camping,family,8,807,37.2013309,127.9789679,,
470,해피니스 캠핑장,경기도 양주시 장흥면 석현리 303-2,경기도 양주시 장흥면 권율로309번길 317-196,11519,river,glamping,couple,3,306,37.7494651,126.9376195,,
471,저스트글램핑,전라북도 임실군 강진면 방현리 353,전라북도 임실군 강진면 이윤길 76,55937,sea,easycamping,kids,9,910,35.5638774,127.1472794,,
472,밀양 가보자 캠핑장,경상남도 밀양시 단장면 법흥리 326-6,경상남도 밀양시 단장면 단장로 905,50416,lake,caravan,pet,17,1706,35.4732282,128.8556797,,
473,캠프오슬로,강원도 삼척시 원덕읍 갈남리 산 87-4,강원도 삼척시 원덕읍 삼척로 1698,25956,mountain,camping,family,4,406,37.2642271,129.3259851,,
474,휴가든 카라반,강원도 영월군 영월읍 연하리 408-8,강원도 영월군 영월읍 복덕원길 45,26230,river,glamping,couple,4,420,37.1926466,128.5566622,,
475,연천미라클타운,경기도 연천군 군남면 옥계리 1259,경기도 연천군 군남면 군중로 134,11005,sea,easycamping,kids,3,310,38.1311734,127.0453179,,
476,스타빌,제주특별자치도 서귀포시 안덕면 광평리 산 31-1,제주특별자치도 서귀포시 안덕면 광평로 34-154,63524,mountain,camping,family,18,1802,33.3390637,126.3953082,,
477,더설렘,경기도 포천시 일동면 수입리 202,경기도 포천시 일동면 윗갈기1길 60,11115,river,glamping,couple,3,302,37.966479,127.3190281,,
478,승암159캠핑장,충청북도 괴산군 청천면 고성리 159,충청북도 괴산군 청천면 후평도원로 484,28061,sea,easycamping,kids,8,801,36.6621486,127.7834563,,
479,탄금호 야영장,충청북도 충주시 금가면 오석리 515-3,충청북도 충주시 금가면 오미기2길 62-1,27445,lake,caravan,pet,8,810,37.0019959,127.8801888,,
480,MOONWALK 카라반캠핑장,경상남도 합천군 대병면 회양리 893-8,경상남도 합천군 대병면 신성동1길 19,50216,mountain,camping,family,17,1718,35.5210494,128.0158108,,
481,고창군 선운산 국민여가캠핑장,전라북도 고창군 아산면 삼인리 347,전라북도 고창군 아산면 선운사로 158-62,56452,river,glamping,couple,9,902,35.5024227,126.5827999,,
482,양평숲 비룡캠프장,경기도 양평군 청운면 가현리 385-2,경기도 양평군 청운면 목내미길 83-215,12530,lake,caravan,pet,3,304,37.5234398,127.7133895,,
483,섬진강권역 거북이야영 캠핑장,전라북도 순창군 동계면 구미리 743-1,전라북도 순창군 동계면 장군목길 352,56026,mountain,camping,family,9,907,35.4467367,127.2066831,,
484,에코밸리 캠핑장,경상북도 경주시 산내면 대현리 2394,경상북도 경주시 산내면 문복로 506-16,38187,sea,easycamping,kids,16,1602,35.679292,129.0511532,,
485,계곡 좋은 펜션 야영장,경상남도 하동군 청암면 묵계리 1376,경상남도 하동군 청암면 아래몰길 24-10,52309,mountain,camping,family,17,1715,35.2357042,127.7197745,,
486,청평사 국민여가 캠핑장,강원도 춘천시 북산면 청평리 668-11,강원도 춘천시 북산면 오봉산길 630,24208,river,glamping,couple,4,412,37.9829341,127.8178527,,
487,대둔산캠핑펜션오토캠핑장,전라북도 완주군 운주면 산북리 417-6,전라북도 완주군 운주면 대둔산로 2100-25,55300,sea,easycamping,kids,9,908,36.1079979,127.3375413,,
488,산으로 간 낚시꾼 캠핑장,경상남도 사천시 실안동 962,경상남도 사천시 해안관광로 68-20 (실안동),52554,lake,caravan,pet,17,1707,34.9480617,128.0414714,,
489,거북선마을 캠핑장,경상남도 사천시 용현면 주문리 733,경상남도 사천시 용현면 사천대교로 75-61,52540,mountain,camping,family,17,1707,34.9984125,128.0406182,,
490,몽산포감성캠핑장,충청남도 태안군 남면 신장리 355-61,충청남도 태안군 남면 몽산포길 65-5,32153,river,glamping,couple,7,702,36.6718875,126.2899523,,
491,꽃길글램핑,경상남도 산청군 금서면 지막리 915,경상남도 산청군 금서면 왕등재로 160,52230,sea,easycamping,kids,17,1708,35.3971461,127.8237998,,
492,네잎클로버 캠핑장,경기도 가평군 설악면 설곡리 777,경기도 가평군 설악면 장수로 156-20,12471,lake,caravan,pet,3,301,37.6171772,127.5097259,,
493,달무리 캠핑장,경기도 가평군 조종면 마일리 319,경기도 가평군 조종면 연인산로 595-1,12433,mountain,camping,family,3,301,37.8554406,127.3844121,,
494,범바위캠핑정원,경기도 김포시 대곶면 율생리 184-1,경기도 김포시 대곶면 종생로 154,10044,river,glamping,couple,3,316,37.6422992,126.6005676,,
495,운악산진우네캠핑장,경기도 포천시 화현면 화현리 1131-6,경기도 포천시 화현면 화동로 218-18,11123,sea,easycamping,kids,3,302,37.8873043,127.3037632,,
496,낭추골캠핑장,충청북도 청주시 상당구 낭성면 추정리 186,충청북도 청주시 상당구 낭성면 단재로 1890,28194,mountain,camping,family,8,809,36.598121,127.6180379,,
497,WAVE 글램핑,경상북도 포항시 남구 구룡포읍 석병리 19-2,경상북도 포항시 남구 구룡포읍 일출로 465,37930,river,glamping,couple,16,1621,36.0313202,129.577901,,
498,프로미스,경기도 포천시 이동면 장암리 716-153,경기도 포천시 이동면 여우고개로242번길 21-27,11111,mountain,camping,family,3,302,38.0691988,127.3533102,,
499,섬진강별빛야영장,전라남도 광양시 진월면 오사리 135-193,전라남도 광양시 진월면 사평1길 23,57711,river,glamping,couple,11,1104,35.0119275,127.7814719,,
500,편안캠핑장,경상북도 경주시 산내면 외칠리 3,경상북도 경주시 산내면 단석로 655-10,38184,sea,easycamping,kids,16,1602,35.7585407,129.0408383,,
501,연종 캠핑장,충청남도 공주시 유구읍 연종리 130-1,충청남도 공주시 유구읍 구계연종길 473,32501,mountain,camping,family,7,701,36.6004269,127.00254,,
502,블루아라한시캠핑장,전라북도 고창군 상하면 자룡리 529-27,전라북도 고창군 상하면 진암구시포로 539-14,56408,river,glamping,couple,9,901,35.4443698,126.4357306,,
503,살롱드 캠핑,경기도 양평군 양동면 쌍학리 357 양동초등학교,경기도 양평군 양동면 활거리길 16-19,12539,sea,easycamping,kids,3,304,37.407741,127.7480848,,
504,엣더몬,경기도 가평군 상면 원흥리 515-2,경기도 가평군 상면 원흥길 52-127,12442,lake,caravan,pet,3,301,37.821251,127.324042,,
505,노마드 캠프,경기도 남양주시 일패동 산 61-17,경기도 남양주시 경춘로611번길 11-44 (일패동),12243,mountain,camping,family,3,305,37.6179603,127.1763309,,
506,서리실 힐링 가족캠핑장,충청남도 천안시 동남구 광덕면 지장리 11-1,충청남도 천안시 동남구 광덕면 서리실길 147,31219,river,glamping,couple,7,712,36.6703212,127.0875036,,
507,가산산성마을 캠핑장,경상북도 칠곡군 가산면 가산리 635-1 칠곡학생야영장,경상북도 칠곡군 가산면 가산로 891,39853,sea,easycamping,kids,16,1620,36.0499159,128.5975783,,
508,어썸비치,강원도 삼척시 근덕면 초곡리 287-1,강원도 삼척시 근덕면 초곡길 380,25937,lake,caravan,pet,4,406,37.3023131,129.2930224,,
509,우니메이카(연천점),경기도 연천군 중면 합수리 93,경기도 연천군 중면 합내로 458,11004,mountain,camping,family,3,310,38.1558714,127.0625539,,
510,하늘땅카라반,전라북도 무주군 설천면 삼공리 819-5,전라북도 무주군 설천면 구천동로 966-12,55557,river,glamping,couple,9,905,35.9073529,127.7704464,,
511,가반나야영장,경상남도 남해군 창선면 서대리 489-2,경상남도 남해군 창선면 서부로 892-9,52451,sea,easycamping,kids,17,1705,34.8851665,127.9847223,,
512,소똥령 마을관리휴양지 야영장,강원도 고성군 간성읍 장신리 513,강원도 고성군 간성읍 소똥령마을길 32,24741,mountain,camping,family,4,403,38.3304025,128.3783351,,
513,젤코바 캠핑장,경기도 용인시 처인구 양지면 주북리 170-8,경기도 용인시 처인구 양지면 송주로236번길 82-19,17159,river,glamping,couple,3,307,37.2352242,127.2622645,,
514,보성 지중해 야영장,전라남도 보성군 회천면 서당리 35-1,전라남도 보성군 회천면 공룡로 206-42,59468,sea,easycamping,kids,11,1109,34.6933709,127.1437891,,
515,월든캠프,강원도 양양군 손양면 송전리 36-5,강원도 양양군 손양면 송평길 28,25041,lake,caravan,pet,4,404,38.089411,128.6539211,,
516,낭도야영장,전라남도 여수시 화정면 낭도리 573,전라남도 여수시 화정면 여산길 150,59781,mountain,camping,family,11,1112,34.6004796,127.5415697,,
517,오색허브농원 캠핑장,강원도 양양군 서면 가라피리 9,강원도 양양군 서면 송어길 38,25033,river,glamping,couple,4,404,38.0700075,128.5386525,,
518,파머스글램핑,전라북도 고창군 상하면 자룡리 산 1-2 농원사무소,전라북도 고창군 상하면 상하농원길 11-23,56408,lake,caravan,pet,9,901,35.4470341,126.4499192,,
519,금강뷰,충청남도 금산군 제원면 천내리 695,충청남도 금산군 제원면 낙안길 107-13,32720,mountain,camping,family,7,703,36.1148538,127.5806774,,
520,은하수야영캠핑장,충청남도 태안군 소원면 모항리 770-11,충청남도 태안군 소원면 연들길 22,32123,river,glamping,couple,7,702,36.7524805,126.1377923,,
521,진동리국민여가캠핑장 by zapza,강원도 춘천시 동면 장학리 1007-6,강원도 춘천시 동면 춘천순환로 609,24209,sea,easycamping,kids,4,412,37.9075284,127.7582323,,
522,부재산방 야영장,경상남도 창원시 마산합포구 진전면 평암리 254,경상남도 창원시 마산합포구 진전면 미천2길 148 (부재산방),51795,lake,caravan,pet,17,1713,35.151871,128.4071246,,
523,영학관광농원 야영장,경상남도 창원시 마산합포구 진북면 영학리 555 외1필지,경상남도 창원시 마산합포구 진북면 학동로 537-280 (외1필지),51786,mountain,camping,family,17,1713,35.154208,128.4337383,,
524,타이거스피드 안녕오토캠핑장,경상남도 창원시 마산합포구 구산면 옥계리 471-2,경상남도 창원시 마산합포구 구산면 안녕로 329 (외2필지),51779,river,glamping,couple,17,1713,35.1080992,128.6007624,,
525,창원 휴양림 오토 캠핑장,경상남도 창원시 마산합포구 구산면 석곡리 산 104,경상남도 창원시 마산합포구 구산면 석곡로 342-2,51779,sea,easycamping,kids,17,1713,35.1111501,128.5706108,,
526,진북편백골관광농원캠핑장,경상남도 창원시 마산합포구 진북면 금산리 437,경상남도 창원시 마산합포구 진북면 금산길 209-81,51786,lake,caravan,pet,17,1713,35.1544997,128.4440451,,
527,돌담캠핑장,경상남도 창원시 마산합포구 진동면 인곡리 726 외9필지,경상남도 창원시 마산합포구 진동면 입곡길 326 (외9필지),51789,mountain,camping,family,17,1713,35.1358987,128.516796,,
528,산청펫글램핑,경상남도 산청군 금서면 자혜리 443,경상남도 산청군 금서면 화계오봉로 349-35,52228,river,glamping,couple,17,1708,35.4387467,127.7779864,,
529,트리하우스계곡야영장,강원도 홍천군 내촌면 와야리 산 75,강원도 홍천군 내촌면 아홉사리로 1740,25162,sea,easycamping,kids,4,414,37.8213503,128.1452914,,
530,젤리캠핑장,경기도 안산시 단원구 대부남동 1126-77,경기도 안산시 단원구 중우물1길 12 (대부남동),15653,lake,caravan,pet,3,308,37.2300463,126.5802849,,
531,양주 두리캠핑장,경기도 양주시 마전동 183,경기도 양주시 마전로212번길 79-72 (마전동),11496,mountain,camping,family,3,306,37.7790935,127.058613,,
532,새움정,경상북도 예천군 보문면 옥천리 235 감천초등학교옥천분교장,경상북도 예천군 보문면 옥천길 30,36812,river,glamping,couple,16,1616,36.707902,128.558372,,
533,한성연수원 야영장,경상북도 문경시 마성면 하내리 754-1,경상북도 문경시 마성면 하내2길 55,36926,sea,easycamping,kids,16,1607,36.6645325,128.0804478,,
534,대기리 숲속 관광농원,강원도 강릉시 왕산면 대기리 1948,강원도 강릉시 왕산면 바람부리길 69,25642,lake,caravan,pet,4,401,37.5782199,128.7490804,,
535,캠핑소리251,경기도 가평군 설악면 엄소리 25-1,경기도 가평군 설악면 묵안로 350,12470,mountain,camping,family,3,301,37.6413017,127.5109419,,
536,코뿔소글램핑,강원도 평창군 방림면 계촌리 867,강원도 평창군 방림면 삼형제길 279-61,25364,river,glamping,couple,4,413,37.4724188,128.2888476,,
537,배티하우스,경상남도 합천군 쌍책면 사양리 665,경상남도 합천군 쌍책면 황강옥전로 1062-50,50250,sea,easycamping,kids,17,1718,35.6085709,128.2671941,,
538,성보촌 캠핑장,경상북도 문경시 호계면 호계리 23,경상북도 문경시 호계면 상무로 377,36930,lake,caravan,pet,16,1607,36.6457188,128.1944669,,
539,룰루랄라 캠핑장,경기도 용인시 처인구 해곡동 230,경기도 용인시 처인구 동부로729번길 97 (해곡동),17142,mountain,camping,family,3,307,37.1963765,127.2717149,,
540,몽고몽고글램핑,강원도 홍천군 남면 남노일리 235-1,강원도 홍천군 남면 남노일로 1162,25105,river,glamping,couple,4,414,37.6804858,127.7568803,,
541,나주 죽산보 오토캠핑장,전라남도 나주시 다시면 죽산리 123-2,전라남도 나주시 우정로 10 ,58322,sea,easycamping,kids,11,1106,34.9708393,126.62778,,
542,그레이스 글램핑,강원도 춘천시 남산면 강촌리 609-1,강원도 춘천시 남산면 북한강변길 888,24465,lake,caravan,pet,4,412,37.8280659,127.6098139,,
543,푸른산페어웨이,경기도 포천시 영북면 산정리 515-7,경기도 포천시 영북면 산정호수로 359-42,11103,mountain,camping,family,3,302,38.0702704,127.3101165,,
544,아만다글램핑장,경기도 가평군 조종면 운악리 292-2,경기도 가평군 조종면 와곡길 120,12432,sea,easycamping,kids,3,301,37.8178242,127.3532361,,
545,연인산 다목적 캠핑장,경기도 가평군 북면 백둔리 349-5 연인산캠핑장,경기도 가평군 북면 백둔로 441,12406,lake,caravan,pet,3,301,37.901539,127.4613974,,
546,캠프 인디오,강원도 홍천군 동면 후동리 565-1,강원도 홍천군 동면 후동길128번길 53,25153,mountain,camping,family,4,414,37.6474479,127.9302942,,
547,함양라온캠핑장,경상남도 함양군 서하면 황산리 5 황석산청소년수련원,경상남도 함양군 서하면 육십령로 2991,50004,river,glamping,couple,17,1717,35.6253673,127.7738738,,
548,해울림영농조합법인,전라남도 고흥군 금산면 신평리 1001-9,전라남도 고흥군 금산면 평산길 94,59565,sea,easycamping,kids,11,1102,34.490557,127.1768616,,
549,수하 캠핑파크,강원도 홍천군 서석면 수하리 743-3 수하캠핑파크,강원도 홍천군 서석면 행치령로 702,25165,mountain,camping,family,4,414,37.763362,128.1666167,,
550,The하루만캠핑장,충청북도 괴산군 청천면 신월리 130,충청북도 괴산군 청천면 괴산로상신5길 6-10,28064,river,glamping,couple,8,801,36.6344894,127.782401,,
551,여울지숲속캠핑장,경기도 김포시 하성면 석탄리 242-10,경기도 김포시 하성면 오정동로 121-15,10012,sea,easycamping,kids,3,316,37.7268328,126.6449422,,
552,용인 둥지골 캠핑장,경기도 용인시 처인구 원삼면 죽능리 26-47,경기도 용인시 처인구 원삼면 후평로185번길 39,17170,lake,caravan,pet,3,307,37.1361654,127.3285735,,
553,비손관광농원 야영장,경상북도 포항시 북구 청하면 서정리 326-1,경상북도 포항시 북구 청하면 비학로 1889-157,37515,mountain,camping,family,16,1621,36.1978102,129.3177971,,
554,유곡면 농촌체험랜드,경상남도 의령군 유곡면 당동리 404,경상남도 의령군 유곡면 청정로 2278,52113,river,glamping,couple,17,1710,35.4325636,128.3167923,,
555,다둥이네캠핑장,경기도 가평군 북면 화악리 678-1,경기도 가평군 북면 화악산로 636,12402,sea,easycamping,kids,3,301,37.9348093,127.5630439,,
556,시골학교캠핑장,충청북도 제천시 봉양읍 옥전리 180,충청북도 제천시 봉양읍 제원로 653,27106,lake,caravan,pet,8,807,37.1734086,128.1052472,,
557,수산하늘풍경,강원도 인제군 남면 수산리 487,강원도 인제군 남면 무학길 34,24647,sea,easycamping,kids,4,409,37.9727318,128.0187588,,
558,곰취향 가득한 팔랑골 캠핑장,강원도 양구군 동면 팔랑리 1278-1,강원도 양구군 동면 바랑길 34-94,24506,lake,caravan,pet,4,407,38.2109131,128.0585536,,
559,러빙네이쳐,강원도 인제군 남면 부평리 1070-2 38휴게소,강원도 인제군 남면 설악로 1129,24646,mountain,camping,family,4,409,38.0016014,128.1157532,,
560,텐타우스 보문지점,경상북도 경주시 천군동 1579-3,경상북도 경주시 경감로 466-311 (천군동),38118,river,glamping,couple,16,1602,35.8143961,129.2705768,,
561,주전패밀리캠핑장,울산광역시 동구 주전동 714-4,울산광역시 동구 주전해안길 300 (주전동),44013,sea,easycamping,kids,14,1402,35.5517834,129.4549914,,
562,홀리데이캠핑파크,경기도 안산시 단원구 대부북동 1851-2,경기도 안산시 단원구 서위매봉길 14 (대부북동),15638,lake,caravan,pet,3,308,37.258289,126.5731267,,
563,산머루농원캠핑장,경기도 파주시 적성면 객현리 44-3,경기도 파주시 적성면 윗배우니길 441-42,10804,mountain,camping,family,3,309,37.9588659,126.9600921,,
564,일곱식구 캠핑장,전라북도 정읍시 칠보면 시산리 19-1,전라북도 정읍시 칠보면 행단1길 153,56128,river,glamping,couple,9,912,35.5867583,127.0135886,,
565,숲내음카라반캠핑장,전라북도 완주군 상관면 죽림리 628-1,전라북도 완주군 상관면 죽림편백길 143-5,55360,lake,caravan,pet,9,908,35.7415745,127.2075763,,
566,포게더 카라반 <지조개발>,경상남도 거제시 사등면 덕호리 269,경상남도 거제시 사등면 덕호해안길 147-1,53274,mountain,camping,family,17,1701,34.872421,128.4729981,,
567,안림딸기마을 캠핑장,경상북도 고령군 쌍림면 안림리 177-1 안림초등학교,경상북도 고령군 쌍림면 안림천길 19-6,40160,sea,easycamping,kids,16,1603,35.6924665,128.2604309,,
568,레저빌봉산,경상남도 합천군 봉산면 김봉리 418,경상남도 합천군 봉산면 서부로 4344-11,50211,lake,caravan,pet,17,1718,35.6270342,128.0445018,,
569,둥지캠핑장,강원도 화천군 사내면 용담리 111-9,강원도 화천군 사내면 돈내미길 183-39,24152,mountain,camping,family,4,415,38.071121,127.553325,,
570,네이스트 프라이빗 음성,충청북도 음성군 원남면 삼용리 471,충청북도 음성군 원남면 덕생로 167-15,27723,sea,easycamping,kids,8,806,36.8944031,127.5982144,,
571,블루문 오토캠핑,세종특별자치시 연서면 와촌리 806-2,세종특별자치시 연서면 기와말1길 20,30046,lake,caravan,pet,6,601,36.5586834,127.2504473,,
572,갈천힐링캠프,강원도 양양군 서면 갈천리 127-5,강원도 양양군 서면 구룡령로 1103-45,25040,mountain,camping,family,4,404,37.9069646,128.5053342,,
573,호수위의하루,충청북도 충주시 중앙탑면 탑평리 518-19,충청북도 충주시 중앙탑면 반천안길 63,27447,river,glamping,couple,8,810,37.0385992,127.856706,,
574,수입리 캠핑장,경기도 양평군 서종면 수입리 249-3,경기도 양평군 서종면 화서로246번길 22-6,12500,sea,easycamping,kids,3,304,37.640419,127.399049,,
575,매물도야영장,경상남도 통영시 한산면 매죽리 34-13,경상남도 통영시 한산면 당금길 50-9,53097,mountain,camping,family,17,1714,34.6384353,128.5699211,,
576,물의나라 캠핑장,경기도 가평군 조종면 상판리 146,경기도 가평군 조종면 명지산로 475,12431,sea,easycamping,kids,3,301,37.9103426,127.3812699,,
577,안면도스쿨버스캠핑장,충청남도 태안군 안면읍 중장리 1586-1,충청남도 태안군 안면읍 안면대로 3356-1,32168,lake,caravan,pet,7,702,36.4866369,126.3832622,,
578,캠핑소사이어티,경상남도 진주시 내동면 유수리 564-6,경상남도 진주시 내동면 내축로 523,52848,mountain,camping,family,17,1711,35.1290423,128.0225815,,
579,금계관광농원,충청남도 공주시 유구읍 문금리 599,충청남도 공주시 유구읍 문금길 86,32500,river,glamping,couple,7,701,36.6375008,126.9838131,,
580,산내 명수관광농원,경상북도 경주시 산내면 감산리 1278,경상북도 경주시 산내면 장사길 46-17,38185,mountain,camping,family,16,1602,35.7903475,129.0501745,,
581,수승대체험휴양마을,경상남도 거창군 위천면 강천리 99-1,경상남도 거창군 위천면 원학길 410,50103,river,glamping,couple,17,1702,35.7527858,127.8309752,,
582,평창 자연속쉼표캠핑장,강원도 평창군 봉평면 흥정리 95-3,강원도 평창군 봉평면 흥정계곡4길 171-10,25300,sea,easycamping,kids,4,413,37.6568629,128.3085988,,
583,글램핑로망,대구광역시 달성군 옥포읍 김흥리 973,대구광역시 달성군 옥포읍 옥포로111길 85-6,42977,lake,caravan,pet,12,1202,35.7413347,128.4948808,,
584,강가민박캠핑장,경상남도 거창군 북상면 농산리 601-1,경상남도 거창군 북상면 덕유월성로 2123-15,50101,river,glamping,couple,17,1702,35.7799871,127.8001065,,
585,김삿갓삿갓 쉼터,강원도 영월군 김삿갓면 각동리 126-20,강원도 영월군 김삿갓면 강변로 1390,26245,sea,easycamping,kids,4,420,37.1135661,128.5296202,,
586,아띠캠핑장,경기도 연천군 군남면 삼거리 597,경기도 연천군 군남면 군남로 373,11006,lake,caravan,pet,3,310,38.0811895,127.0169545,,
587,우이동 가족캠핑장,서울특별시 강북구 우이동 317 우이동 가족캠핑장 방문자센터,서울특별시 강북구 삼양로181길 28,1000,mountain,camping,family,1,103,37.6653563,127.011749,,
588,달숲스테이,충청북도 제천시 금성면 월림리 16-2,충청북도 제천시 금성면 산곡3길 151,27208,river,glamping,couple,8,807,37.088359,128.1888709,,
589,문두리 캠핑장,경상북도 경주시 산내면 대현리 2747-221,경상북도 경주시 산내면 문복로 333-42,38187,lake,caravan,pet,16,1602,35.6636568,129.0536464,,
590,천안밤나무골가족캠핑농원,충청남도 천안시 서북구 성거읍 송남리 산 40,충청남도 천안시 서북구 성거읍 보명사길 74-13,31046,sea,easycamping,kids,7,712,36.8598818,127.1999584,,
591,두바퀴로 가는 자동차 관광농원,경상북도 경주시 산내면 신원리 647,경상북도 경주시 산내면 외칠일부길 278-182,38186,lake,caravan,pet,16,1602,35.7540323,129.0009176,,
592,오래캠핑장,경기도 가평군 북면 소법리 137-2번지,경기도 가평군 북면 화악산로 233,12404,mountain,camping,family,3,301,37.9022363,127.5595136,,
593,HJ글램핑,경기도 포천시 이동면 도평리 512-4,경기도 포천시 이동면 금강로 6169,11110,river,glamping,couple,3,302,38.0757063,127.4032977,,
594,경주 더숲 관광농원,경상북도 경주시 내남면 명계리 485-2,경상북도 경주시 내남면 내외로 731-107,38198,sea,easycamping,kids,16,1602,35.7089924,129.2566036,,
595,옥계마을회영농조합법인,경상남도 거제시 하청면 연구리 414-9,경상남도 거제시 하청면 칠천로 265-17,53203,lake,caravan,pet,17,1701,34.9784998,128.6303448,,
596,스톤힐,경상남도 거제시 수월동 122-12,경상남도 거제시 수양1길 92-5 (수월동),53240,mountain,camping,family,17,1701,34.8917931,128.6546495,,
597,풍혈산 캠핑장,경기도 포천시 일동면 수입리 903번지,경기도 포천시 일동면 성장로 397,11115,river,glamping,couple,3,302,38.0142428,127.2953896,,
598,썬오브캠핑장,경기도 포천시 이동면 도평리 538-6,경기도 포천시 이동면 금강로6263번길 14,11110,lake,caravan,pet,3,302,38.0757063,127.4032977,,
599,명성산글램핑,경기도 포천시 영북면 산정리 390-4번지,경기도 포천시 영북면 산정호수로 1017,11103,mountain,camping,family,3,302,38.0900273,127.3197428,,
600,포천 자연마을 서울캠핑장,경기도 포천시 관인면 사정리 136-1번지,경기도 포천시 관인면 북원로 371-115,11101,river,glamping,couple,3,302,38.1235798,127.2534535,,
601,맑은물소리 캠핑장,경기도 포천시 관인면 삼율리 6,경기도 포천시 관인면 담터길 123,11100,sea,easycamping,kids,3,302,38.1483128,127.206664,,
602,나무다 캠핑장,경기도 포천시 신북면 심곡리 763 외 1필지(769-1),경기도 포천시 신북면 깊이울로 167,11136,lake,caravan,pet,3,302,37.9227054,127.1723578,,
603,대청마루 물소리,경기도 포천시 관인면 삼율리 10번지 외 1필지(493번지),경기도 포천시 관인면 담터길 239,11100,river,glamping,couple,3,302,38.1556884,127.1982158,,
604,깊이울 달빛 캠핑장,경기도 포천시 신북면 심곡리 734-3,경기도 포천시 신북면 깊이울로 204,11136,sea,easycamping,kids,3,302,37.9213966,127.1690786,,
605,사랑나무 캠핑장,강원도 영월군 김삿갓면 내리 87,강원도 영월군 김삿갓면 내리계곡로 131-12,26247,mountain,camping,family,4,420,37.0779437,128.7082094,,
606,영월천문대 캠핑장,강원도 영월군 북면 연덕리 931번지,강원도 영월군 북면 사만길 173,26208,river,glamping,couple,4,420,37.2635863,128.4099912,,
607,영월키즈캠핑장,강원도 영월군 무릉도원면 법흥리 181,강원도 영월군 무릉도원면 무릉법흥로 1208-7,26201,sea,easycamping,kids,4,420,37.3641271,128.2733673,,
608,아날로거 무릉도원점,강원도 영월군 무릉도원면 무릉리 608-2,강원도 영월군 무릉도원면 아래골길 10,26201,lake,caravan,pet,4,420,37.2924942,128.2750535,,
609,호식이 캠핑장,강원도 영월군 주천면 판운리 714-6번지,강원도 영월군 주천면 중선로 215,26202,mountain,camping,family,4,420,37.3115479,128.318627,,
610,남강 캠프,강원도 영월군 무릉도원면 법흥리 89-9번지,강원도 영월군 무릉도원면 무릉법흥로 1050-16,26201,river,glamping,couple,4,420,37.350179,128.2798996,,
611,두산분교 캠핑장,강원도 영월군 무릉도원면 두산리 453-3번지,강원도 영월군 무릉도원면 두산길 237-4,26200,sea,easycamping,kids,4,420,37.3080162,128.1704926,,
612,달과별 캠핑장,강원도 영월군 상동읍 덕구리 18,강원도 영월군 상동읍 덕구로 432-25,26248,lake,caravan,pet,4,420,37.095083,128.8108591,,
613,새막골 캠프,강원도 영월군 무릉도원면 두산리 304-1번지,강원도 영월군 무릉도원면 새막골길 72-115,26200,mountain,camping,family,4,420,37.3237241,128.1786364,,
614,느티나무 캠핑장,강원도 영월군 김삿갓면 내리 474,강원도 영월군 김삿갓면 내리계곡로 1061,26247,river,glamping,couple,4,420,37.0779437,128.7082094,,
615,뜨란솔 캠핑장,강원도 영월군 무릉도원면 법흥리 625-1번지,강원도 영월군 무릉도원면 무릉법흥로 782-26,26201,sea,easycamping,kids,4,420,37.3317951,128.2766288,,
616,보보스캇 캠핑장,강원도 영월군 주천면 판운리 463,강원도 영월군 주천면 미다리길 50-24,26202,lake,caravan,pet,4,420,37.2913138,128.3264344,,
617,정든 캠핑장,강원도 영월군 무릉도원면 법흥리 712번지,강원도 영월군 무릉도원면 무릉법흥로 644-9,26201,mountain,camping,family,4,420,37.3249052,128.2636353,,
618,꿈엔들 캠프장,강원도 영월군 무릉도원면 법흥리 51,강원도 영월군 무릉도원면 무릉법흥로 968-12,26201,river,glamping,couple,4,420,37.3428027,128.2809636,,
619,서종 힐링캠핑장,경기도 양평군 서종면 노문리 465,경기도 양평군 서종면 화서로 532-6,12500,sea,easycamping,kids,3,304,37.6478035,127.4262728,,
620,양평 드림캠핑장,경기도 양평군 용문면 금곡리 231-12 외 13필지,경기도 양평군 용문면 갈지길41번길 52,12513,lake,caravan,pet,3,304,37.5004233,127.623111,,
621,스마일 캠핑장,경기도 양평군 단월면 석산리 148-1,경기도 양평군 단월면 석산로 1539-2,12525,mountain,camping,family,3,304,37.6463879,127.6163846,,
622,플라워 카라반 펜션,경기도 양평군 단월면 석산리 148-7 148-5,경기도 양평군 단월면 석산로 1543-9,12525,river,glamping,couple,3,304,37.6463879,127.6163846,,
623,양평맑은숲캠핑장,경기도 양평군 청운면 다대리 산 45-2,경기도 양평군 청운면 오목골길 33,12531,sea,easycamping,kids,3,304,37.5636853,127.7325533,,
624,솔뜰,경기도 양평군 옥천면 신복리 424-1,경기도 양평군 옥천면 사기점길 45,12505,mountain,camping,family,3,304,37.5410604,127.4675792,,
625,배너미오토캠핑장,경상북도 청도군 운문면 신원리 32번지,경상북도 청도군 운문면 운문로 1051,38368,sea,easycamping,kids,16,1619,35.6658315,129.0026839,,
626,I go,경상북도 청도군 매전면 호화리 752-78,경상북도 청도군 매전면 온장길 123-46,38356,lake,caravan,pet,16,1619,35.643378,128.850326,,
627,국립운문산자연휴양림 야영장,경상북도 청도군 운문면 신원리 산 29-6번지,경상북도 청도군 운문면 운문로 763,38368,mountain,camping,family,16,1619,35.6534002,129.0187167,,
628,포천계곡캠핑장,경기도 포천시 이동면 도평리 542-1,경기도 포천시 이동면 금강로 6304,11110,sea,easycamping,kids,3,302,38.0757063,127.4032977,,
629,호반 캠핑장,강원도 춘천시 신동 970-1,강원도 춘천시 영서로 3189 (신동),24207,lake,caravan,pet,4,412,37.9339721,127.7178084,,
630,YELLOW HILL,강원도 춘천시 동산면 군자리 1020,강원도 춘천시 동산면 종자리로 224-24,24409,mountain,camping,family,4,412,37.7499089,127.7335481,,
631,강촌버즈글램핑(강촌팜핑),강원도 춘천시 서면 안보리 403,강원도 춘천시 서면 율장길 122-28,24463,river,glamping,couple,4,412,37.8497311,127.5807137,,
632,춘천하늘캠핑장,강원도 춘천시 서면 방동리 981,강원도 춘천시 서면 방동1길 315,24460,sea,easycamping,kids,4,412,37.9128188,127.6563897,,
633,국립회문산자연휴양림,전라북도 순창군 구림면 안정리 40-2,전라북도 순창군 구림면 안심길 214,56011,lake,caravan,pet,9,907,35.4980511,127.1218125,,
634,녹두장군 전봉준관,전라북도 순창군 쌍치면 금성리 276,전라북도 순창군 쌍치면 피노길 65-29,56007,mountain,camping,family,9,907,35.5242264,127.0127093,,
635,웅이네 캠핑장,전라북도 순창군 복흥면 대방리 285-10번지,전라북도 순창군 복흥면 용지길 7-50,56005,river,glamping,couple,9,907,35.4083123,126.9464892,,
636,회문산 캠핑장,전라북도 순창군 구림면 금천리 378,전라북도 순창군 구림면 구림로 791,56011,sea,easycamping,kids,9,907,35.4762781,127.1023417,,
637,섬진강 마실캠핑장,전라북도 순창군 적성면 석산리 1-1,전라북도 순창군 적성면 강경길 76-165,56022,lake,caravan,pet,9,907,35.4599326,127.2014649,,
638,뜨란채,전라북도 순창군 팔덕면 청계리 1028번지,전라북도 순창군 팔덕면 강천로 664-26 (뜨란채),56020,mountain,camping,family,9,907,35.4160577,127.077498,,
639,청산별곡,전라북도 순창군 동계면 수장리 570-17번지,전라북도 순창군 동계면 수장2길 38-4,56028,river,glamping,couple,9,907,35.4356483,127.2670432,,
640,거북바위야영장,경기도 양평군 서종면 서후리 234-1,경기도 양평군 서종면 거북바위1길 185,12504,lake,caravan,pet,3,304,37.5673434,127.429176,,
641,산대분교공공캠핑장,경기도 양평군 단월면 석산리 470번지,경기도 양평군 단월면 섬이길 274-12,12525,mountain,camping,family,3,304,37.6295921,127.5836461,,
642,분지울작은캠프장,경기도 양평군 단월면 명성리 98-1,경기도 양평군 단월면 분지울1길 81,12526,river,glamping,couple,3,304,37.6086248,127.6720401,,
643,the 休 글램핑,경기도 양평군 옥천면 옥천리 514-1,경기도 양평군 옥천면 옥천체육공원길 4,12508,sea,easycamping,kids,3,304,37.5229432,127.4607662,,
644,국립청옥산자연휴양림,경상북도 봉화군 석포면 13-64번지,경상북도 봉화군 석포면 청옥로 1552-163,36271,lake,caravan,pet,16,1608,37.0486457,129.0651698,,
645,봉화열목어마을야영장,경상북도 봉화군 석포면 대현리 90-5번지,경상북도 봉화군 석포면 청옥로 1893,36271,mountain,camping,family,16,1608,37.0657764,128.9870352,,
646,고향펜션캠핑,경상북도 봉화군 소천면 고선리 558번지,경상북도 봉화군 소천면 구마동길 1032,36264,river,glamping,couple,16,1608,36.9996379,128.9647656,,
647,청옥야영장,경상북도 봉화군 소천면 현동리 744-6번지,경상북도 봉화군 소천면 청옥로 167,36266,sea,easycamping,kids,16,1608,36.9474233,128.9980857,,
648,호명산캠프,경기도 가평군 청평면 하천리 410번지,경기도 가평군 청평면 솥틀로 91,12450,river,glamping,couple,3,301,37.7624243,127.4287765,,
649,국립유명산자연휴양림,경기도 가평군 설악면 가일리 산 35번지,경기도 가평군 설악면 유명산길 79-53,12473,sea,easycamping,kids,3,301,37.5928839,127.4920842,,
650,캡틴 카라반 글램핑,경기도 가평군 상면 임초리 477-1,경기도 가평군 상면 청군로 776-22,12447,lake,caravan,pet,3,301,37.780876,127.3713366,,
651,수류산골야영장,전라북도 김제시 금산면 금성리 267번지,전라북도 김제시 금산면 수류로 557-75,54344,mountain,camping,family,9,903,35.6894521,127.039183,,
652,봉식이놀이터,경상북도 청도군 풍각면 수월리,경상북도 청도군 풍각면 봉수길 749-8,38306,river,glamping,couple,16,1619,35.6701697,128.5582662,,
653,지오 캠핑장,경상북도 청도군 매전면 호화리 734-28,경상북도 청도군 매전면 동화길 8-31,38356,sea,easycamping,kids,16,1619,35.6587533,128.8563832,,
654,화이트 야영장,경상북도 청도군 매전면 호화리 752-36번지,경상북도 청도군 매전면 온장길 123-56,38356,lake,caravan,pet,16,1619,35.6439534,128.8502835,,
655,청도 그린나래캠핑장,경상북도 청도군 매전면 송원리 900,경상북도 청도군 매전면 송원길 122-3,38358,sea,easycamping,kids,16,1619,35.6161736,128.8038868,,
656,신난다 글램핑,경상북도 청도군 각북면 금천리 427,경상북도 청도군 각북면 송내길 57-13,38301,lake,caravan,pet,16,1619,35.7200378,128.5732849,,
657,별찌야영장,경상북도 청도군 운문면 신원리 92번지,경상북도 청도군 운문면 신원4길 2,38368,mountain,camping,family,16,1619,35.6676925,129.0011939,,
658,청도 프로방스카라반 캠핑카펜션,경상북도 청도군 화양읍 삼신리 823번지,경상북도 청도군 화양읍 이슬미로 297-41,38324,sea,easycamping,kids,16,1619,35.687635,128.7153404,,
659,연지곤지야영장,경상북도 청도군 운문면 신원리 301-13번지,경상북도 청도군 운문면 운문로 1158-16,38368,sea,easycamping,kids,16,1619,35.6733036,128.9992989,,
660,양주송천캠핑장,경기도 양주시 백석읍 기산리 382-5,경기도 양주시 백석읍 기산로440번길 74-20,11518,sea,easycamping,kids,3,306,37.7737334,126.9381918,,
661,일영모자농원캠핑장,경기도 양주시 장흥면 삼상리 10-17,경기도 양주시 장흥면 유원지로 316-1,11524,lake,caravan,pet,3,306,37.7083474,126.953516,,
662,해피캠핑장,경기도 양주시 백석읍 기산리 302-6,경기도 양주시 백석읍 기산로471번길 110,11518,mountain,camping,family,3,306,37.7802459,126.9438087,,
663,들꽃피는언덕 캠핑장,경기도 양주시 백석읍 기산리 181-1,경기도 양주시 백석읍 권율로 870,11518,river,glamping,couple,3,306,37.7761011,126.9600967,,
664,황방농원 캠핑장,경기도 양주시 남면 황방리 140,경기도 양주시 남면 양연로173번길 49,11402,sea,easycamping,kids,3,306,37.9214223,126.9968574,,
665,양주 탑 관광농원 글램핑장,경기도 양주시 삼숭동 481-1,경기도 양주시 어하고개로 48-1 (삼숭동),11477,lake,caravan,pet,3,306,37.8107725,127.1022947,,
666,별을 다는 아이,경기도 양주시 장흥면 석현리 336-3,경기도 양주시 장흥면 권율로309번길 132,11519,mountain,camping,family,3,306,37.7447811,126.953675,,
667,장흥숲길캠핑장,경기도 양주시 장흥면 일영리 2-20,경기도 양주시 장흥면 권율로 156-116,11520,river,glamping,couple,3,306,37.707221,126.9380811,,
668,스톤밸리캠핑장,경기도 양주시 봉양동 154-1,경기도 양주시 칠봉산로228번길 126-5 (봉양동),11448,sea,easycamping,kids,3,306,37.8589581,127.0813743,,
669,청화산캠프 관광농원,경상북도 군위군 소보면 보현리 10번지,경상북도 군위군 소보면 소보안계로 646-36,39000,lake,caravan,pet,16,1605,36.3068273,128.4621849,,
670,80 SS 오토캠핑장,경상북도 군위군 부계면 남산리 1138-4번지,경상북도 군위군 부계면 한티로 1525-6,39066,mountain,camping,family,16,1605,36.0300417,128.6304762,,
671,동산계곡야영장,경상북도 군위군 부계면 동산리 417번지,경상북도 군위군 부계면 원효길 129-9,39065,river,glamping,couple,16,1605,36.0464722,128.6656598,,
672,넓은마당 캠핑장,경기도 포천시 이동면 도평리 469-8번지,경기도 포천시 이동면 화동로 2530,11110,lake,caravan,pet,3,302,38.0757063,127.4032977,,
673,캠핑플래닛,경기도 포천시 화현면 명덕리 10-8 외 1필지(10-6번지),경기도 포천시 화현면 봉화로 400-150,11125,river,glamping,couple,3,302,37.8879696,127.2828156,,
674,자일랜드,경기도 포천시 영북면 자일리 8,경기도 포천시 영북면 호국로4350번길 154-188,11102,sea,easycamping,kids,3,302,38.1054955,127.3091286,,
675, 자켓(Wet Jacket),경기도 포천시 이동면 장암리 50 외 1필지(50-1번지),경기도 포천시 이동면 늠바위길 201-3,11111,lake,caravan,pet,3,302,38.0291681,127.387489,,
676,포천 베어스 글램핑 파크,경기도 포천시 내촌면 신팔리 388-2,경기도 포천시 내촌면 금강로 3009,11188,mountain,camping,family,3,302,37.8323651,127.2657822,,
677,광릉솔개캠핑장,경기도 포천시 소흘읍 이곡리 524-3,경기도 포천시 소흘읍 광릉수목원로779번길 120,11187,river,glamping,couple,3,302,37.764206,127.1453783,,
678,삼정 관광농원,경기도 포천시 신북면 삼정리 291번지 외 1필지(291-5번지),경기도 포천시 신북면 청신로947번길 207,11137,sea,easycamping,kids,3,302,37.9787214,127.1353432,,
679,아이에프에이 캠프 운악,경기도 포천시 화현면 화현리 1090-2,경기도 포천시 화현면 금강로 3806-80,11123,lake,caravan,pet,3,302,37.8939272,127.3056871,,
680,추동캠프,경기도 포천시 창수면 추동리 812,경기도 포천시 창수면 포천로2811번길 194,11134,mountain,camping,family,3,302,37.9917693,127.15567,,
681,꾸러기캠핑장,경상남도 진주시 금곡면 동례리 886번지,경상남도 진주시 금곡면 검암길 31 (금곡초등학교),52842,river,glamping,couple,17,1711,35.1154006,128.1819876,,
682,도토리캠프,경상남도 진주시 명석면 계원리 174-1번지,경상남도 진주시 명석면 광제산로 737,52641,sea,easycamping,kids,17,1711,35.2764881,128.0388658,,
683,제이원빌리지,경상남도 진주시 내동면 유수리 691-4번지,경상남도 진주시 내동면 내축로563번길 27-3,52848,lake,caravan,pet,17,1711,35.1315473,128.0174831,,
684,국립운장산자연휴양림 야영장,전라북도 진안군 정천면 갈용리 산 183번지,전라북도 진안군 정천면 휴양림길 77,55410,mountain,camping,family,9,913,35.8947554,127.4257541,,
685,진안 국제 캠핑장,전라북도 진안군 용담면 와룡리 74-1번지 진안국제캠핑장,전라북도 진안군 용담면 와룡길 165-6,55404,sea,easycamping,kids,9,913,35.9655034,127.4612836,,
686,숲 펜션&캠핑장,전라북도 진안군 부귀면 두남리 24,전라북도 진안군 부귀면 석원로 22,55415,lake,caravan,pet,9,913,35.8548236,127.428417,,
687,도원패밀리캠핑장,강원도 영월군 무릉도원면 도원리 367번지,강원도 영월군 무릉도원면 엄둔길 390,26201,mountain,camping,family,4,420,37.3277259,128.2321232,,
688,예다움 캠핑장,강원도 영월군 김삿갓면 내리 551번지,강원도 영월군 김삿갓면 내리계곡로 1162-1,26247,river,glamping,couple,4,420,37.0779437,128.7082094,,
689,물마루 캠핑장,강원도 영월군 무릉도원면 두산리 222-1,강원도 영월군 무릉도원면 두산길 106,26200,sea,easycamping,kids,4,420,37.3125646,128.1798713,,
690,영월별마로펜션캠핑,강원도 영월군 무릉도원면 법흥리 97번지,강원도 영월군 무릉도원면 무릉법흥로 1078-22,26201,lake,caravan,pet,4,420,37.3518299,128.2798301,,
691,아빠가 만든 캠핑장,강원도 영월군 북면 덕상리 548-1번지,강원도 영월군 북면 덕전길 240,26208,mountain,camping,family,4,420,37.2554661,128.3927601,,
692,어울림펜션 캠핑장,강원도 영월군 한반도면 후탄리 327번지,강원도 영월군 한반도면 문둔길 106,26214,river,glamping,couple,4,420,37.198482,128.3721274,,
693,산솔 캠핑장,강원도 영월군 중동면 녹전리 193번지,강원도 영월군 중동면 태백산로 1616,26243,sea,easycamping,kids,4,420,37.1468693,128.7077617,,
694,두산 캠핑장,강원도 영월군 무릉도원면 두산리 604번지,강원도 영월군 무릉도원면 새막골길 165-13,26200,lake,caravan,pet,4,420,37.3178185,128.1614819,,
695,리버힐즈 캠핑장(푸른농원),강원도 영월군 무릉도원면 두산리 169-4번지,강원도 영월군 무릉도원면 도원운학로 1043,26200,mountain,camping,family,4,420,37.2959339,128.1895815,,
696,청산 캠프,강원도 영월군 무릉도원면 법흥리 630번지,강원도 영월군 무릉도원면 무릉법흥로 782-10,26201,river,glamping,couple,4,420,37.3308716,128.2746562,,
697,솔밭캠프장,강원도 영월군 무릉도원면 법흥리 655-4번지,강원도 영월군 무릉도원면 무릉법흥로 740,26201,sea,easycamping,kids,4,420,37.328109,128.2710353,,
698,풍경,강원도 영월군 무릉도원면 법흥리 702-6번지,강원도 영월군 무릉도원면 무릉법흥로 674-14,26201,lake,caravan,pet,4,420,37.3267928,128.266113,,
699,청송캠핑장,강원도 영월군 무릉도원면 법흥리 364번지,강원도 영월군 무릉도원면 무릉법흥로 1278-8,26201,mountain,camping,family,4,420,37.3684857,128.2674807,,
700,포안캠핑,강원도 영월군 무릉도원면 두산리 230-2번지 외 3필지,강원도 영월군 무릉도원면 두산길 120,26200,river,glamping,couple,4,420,37.3127265,128.1795264,,
701,룩스글램핑앤팜,경상북도 안동시 도산면 토계리 595-1,경상북도 안동시 도산면 양평길 23-52,36604,sea,easycamping,kids,16,1611,36.7482246,128.8419822,,
702,계명산자연휴양림 야영장,경상북도 안동시 길안면 고란리 108,경상북도 안동시 길안면 고란길 207-99,36736,lake,caravan,pet,16,1611,36.4156954,128.9467699,,
703,단호샌드파크 캠핑장,경상북도 안동시 남후면 단호리 76-3번지,경상북도 안동시 남후면 풍산단호로 835-35,36754,mountain,camping,family,16,1611,36.5557974,128.6303037,,
704,산장관광지,경기도 가평군 상면 덕현리 산 74-5번지,경기도 가평군 상면 덕현산장길 71,477821,sea,easycamping,kids,3,301,37.7546412,127.4155383,,
705,사계절글램핑,경기도 가평군 가평읍 금대리 583-2번지,경기도 가평군 가평읍 북한강변로 154,477803,lake,caravan,pet,3,301,37.7468316,127.5253743,,
706,새연리조트 가평현리점,경기도 가평군 하면 신상리 477번지,경기도 가평군 하면 운악청계로333번길 86,477832,mountain,camping,family,3,301,37.847027,127.3469572,,
707,가평카라반캠핑농원,경기도 가평군 가평읍 읍내리 803번지,경기도 가평군 가평읍 문화로 291-25,12414,river,glamping,couple,3,301,37.8384171,127.5042196,,
708,남이섬 힐링 캠핑장,경기도 가평군 가평읍 금대리 303-2번지,경기도 가평군 가평읍 북한강변로 516,12428,sea,easycamping,kids,3,301,37.772262,127.5363518,,
709,포시즌캠핑장,경기도 가평군 상면 태봉리 535번지,경기도 가평군 상면 청군로 1640,12442,lake,caravan,pet,3,301,37.8271449,127.3203207,,
710,이지캠핑장,경기도 가평군 설악면 회곡리 371번지,경기도 가평군 설악면 유명로 2110 (청평프라자),12459,mountain,camping,family,3,301,37.696012,127.4600346,,
711,동물카라반펜션,경기도 가평군 상면 임초리 624-7,경기도 가평군 상면 임초밤안골로 313,477824,sea,easycamping,kids,3,301,37.7469891,127.3595918,,
712,하늘숲글램핑파크,경기도 가평군 북면 소법리 152-4,경기도 가평군 북면 화악산로 254-38,12404,lake,caravan,pet,3,301,37.9044748,127.5620281,,
713,광릉숲 이야기 캠핑장,경기도 포천시 소흘읍 직동리 76-4,경기도 포천시 소흘읍 직동길 44,11186,mountain,camping,family,3,302,37.7666087,127.1697874,,
714,이동계곡 캠핑장,경기도 포천시 이동면 도평리 538-4,경기도 포천시 이동면 금강로6263번길 14-1,11110,river,glamping,couple,3,302,38.0757063,127.4032977,,
715,닥박골 휴양림,경기도 포천시 신북면 심곡리 615 외 1필지(597-26),경기도 포천시 신북면 깊이울로1길 48-17,11136,sea,easycamping,kids,3,302,37.9291301,127.1781007,,
716,대회산 캠핑장,경기도 포천시 영북면 대회산리 120 외 13필지,경기도 포천시 영북면 대회산길 79-89,11108,lake,caravan,pet,3,302,38.0673938,127.2401644,,
717,백운오양골 캠핑장,경기도 포천시 이동면 도평리 475,경기도 포천시 이동면 화동로2457번길 92,11110,mountain,camping,family,3,302,38.0757063,127.4032977,,
718,산아래캠핑장,경기도 포천시 관인면 삼율리 12번지,경기도 포천시 관인면 담터길 275,11100,river,glamping,couple,3,302,38.1576334,127.1939875,,
719,동화야영장(대구광역시장 팔공산공원관리사무소)),대구광역시 동구 용수동 36번지,대구광역시 동구 팔공산로199길 6-1 (용수동),41007,sea,easycamping,kids,12,1203,35.989954,128.6961631,,
720,마이산 풍혈냉천 캠핑장,전라북도 진안군 성수면 용포리 189-24번지,전라북도 진안군 성수면 용포로 345,55457,lake,caravan,pet,9,913,35.7233288,127.3004596,,
721,부귀농원 가족캠프 캠핑장,전라북도 진안군 부귀면 두남리 88번지 진안부귀가족캠프,전라북도 진안군 부귀면 귀상로 708-33,55415,mountain,camping,family,9,913,35.8489576,127.4219772,,
722,부산카라반파크,부산광역시 기장군 일광면 문동리 72,부산광역시 기장군 일광면 일광로 763,46039,sea,easycamping,kids,13,1301,35.309275,129.2593318,,
723,지오클럽,부산광역시 기장군 일광면 삼성리 151-1,부산광역시 기장군 일광면 기장해안로 1272 (약수터민박),46044,lake,caravan,pet,13,1301,35.2579069,129.2351344,,
724,마루펜션 캠핑장,강원도 영월군 주천면 판운리 90-2번지,강원도 영월군 주천면 평창강로 221,26202,mountain,camping,family,4,420,37.2985832,128.3445404,,
725,영월오아시스 글램핑,강원도 영월군 영월읍 방절리 596,강원도 영월군 영월읍 선돌길 83-27,26226,river,glamping,couple,4,420,37.1797831,128.4335123,,
726,황토와 통나무 캠핑장,강원도 영월군 무릉도원면 법흥리 244-1번지,강원도 영월군 무릉도원면 백년계곡길 66-16,26201,sea,easycamping,kids,4,420,37.3716451,128.2736961,,
727,월드니스,강원도 영월군 무릉도원면 도원리 795-1번지,강원도 영월군 무릉도원면 도원운학로 475-10,26201,lake,caravan,pet,4,420,37.3001573,128.221309,,
728,섬지골 캠핑장,강원도 영월군 상동읍 내덕리 산 78-2,강원도 영월군 상동읍 섬지골길 19,26248,mountain,camping,family,4,420,37.112599,128.7369498,,
729,영월가자,강원도 영월군 무릉도원면 법흥리 852,강원도 영월군 무릉도원면 무릉법흥로 852-24,26201,river,glamping,couple,4,420,37.3232353,128.2558958,,
730,꽃내라팜 야영장,강원도 고성군 간성읍 어천리 62,강원도 고성군 간성읍 꽃내마루길 75 (꽃내라팜),24740,sea,easycamping,kids,4,403,38.3493134,128.4276285,,
731,하비리조트,경상북도 청도군 각북면 지슬리 1075번지,경상북도 청도군 각북면 지슬길 34-17,38301,sea,easycamping,kids,16,1619,35.7124194,128.588085,,
732,삼계리주말농원캠핑장,경상북도 청도군 운문면 신원리 217,경상북도 청도군 운문면 신원3길 74,38368,lake,caravan,pet,16,1619,35.676392,129.0067109,,
733,마음이 머무는곳,강원도 화천군 사내면 광덕리 465-6번지,강원도 화천군 사내면 포화로 653-76,24150,mountain,camping,family,4,415,38.0848148,127.4872488,,
734,러브팜캠핑장,강원도 화천군 사내면 삼일리 168-4,강원도 화천군 사내면 화악산로 938-3,24158,river,glamping,couple,4,415,38.0577269,127.5324679,,
735,화천 휴 캠핑장,강원도 화천군 화천읍 중리 16-16번지,강원도 화천군 화천읍 산수화로 164-80,24114,sea,easycamping,kids,4,415,38.1186875,127.7233306,,
736,낭만캠프,강원도 화천군 간동면 유촌리 137-1번지,강원도 화천군 간동면 모현동로 185-41,24138,lake,caravan,pet,4,415,38.0427809,127.7992925,,
737,다옴 햇골 캠핑장,강원도 화천군 사내면 사창리 864-1번지,강원도 화천군 사내면 소이길 42,24159,mountain,camping,family,4,415,38.0597243,127.5186097,,
738,캠플레이 캠핑장,강원도 화천군 상서면 봉오리 186-2,강원도 화천군 상서면 갈목길 17-1,24103,river,glamping,couple,4,415,38.1647458,127.6160385,,
739,산방환담,강원도 화천군 사내면 광덕리 200-5번지,강원도 화천군 사내면 가화로 458-48,24150,sea,easycamping,kids,4,415,38.0977029,127.4726813,,
740,돌집야영장,강원도 화천군 간동면 간척리 992-5번지,강원도 화천군 간동면 춘양로 777-9,24139,lake,caravan,pet,4,415,38.0226453,127.8057211,,
741,화천에코스쿨 생태체험장,강원도 화천군 화천읍 동촌리 2421 에코스쿨(구 수동분교),강원도 화천군 화천읍 비수구미길 972,24111,river,glamping,couple,4,415,38.1570491,127.8596535,,
742,화천 다희펜션캠핑장,강원도 화천군 사내면 삼일리 161,강원도 화천군 사내면 큰방단길 63,24161,sea,easycamping,kids,4,415,38.0526829,127.5360493,,
743,무주글램핑,전라북도 무주군 설천면 삼공리 524-12번지,전라북도 무주군 설천면 구천동1로 138,55557,lake,caravan,pet,9,905,35.8983696,127.7757874,,
744,무주카라반,전라북도 무주군 설천면 심곡리 474-2,전라북도 무주군 설천면 구천동로 1048-8,55555,mountain,camping,family,9,905,35.9071467,127.7622164,,
745,덕유캠프농원,전라북도 무주군 설천면 심곡리 398번지,전라북도 무주군 설천면 구천동로 1262-8,55555,river,glamping,couple,9,905,35.9240443,127.7597413,,
746,지구캠프,강원도 영월군 무릉도원면 법흥리 133번지,강원도 영월군 무릉도원면 무릉법흥로 1104,26201,sea,easycamping,kids,4,420,37.3552387,128.2787432,,
747,Najost Camp,강원도 영월군 김삿갓면 와석리 729-6번지 외 4필지,강원도 영월군 김삿갓면 김삿갓로 638,26246,lake,caravan,pet,4,420,37.1096806,128.6042253,,
748,엄둔솔밭빌리지,강원도 영월군 무릉도원면 도원리 673번지 외 2필지,강원도 영월군 수주면 도원운학로 376,26201,mountain,camping,family,4,420,37.3000264,128.2336172,,
749,길캠프,강원도 영월군 무릉도원면 두산리 810번지 외 4필지,강원도 영월군 수주면 황정길 29,26200,river,glamping,couple,4,420,37.3028411,128.1540906,,
750,법흥 캠핑장,강원도 영월군 무릉도원면 법흥리 189-1번지,강원도 영월군 무릉도원면 백년계곡길 14-3,26201,sea,easycamping,kids,4,420,37.3660761,128.2738034,,
751,더좋은 펜션 캠핑장,강원도 영월군 무릉도원면 도원리 710-1번지,강원도 영월군 무릉도원면 엄둔길 180,26201,lake,caravan,pet,4,420,37.312112,128.2327475,,
752,정원 캠핑장,강원도 영월군 무릉도원면 도원리 880-12번지,강원도 영월군 무릉도원면 도원운학로 871,26201,mountain,camping,family,4,420,37.2925126,128.205106,,
753,석천캠핑장,강원도 영월군 무릉도원면 법흥리 236-2번지,강원도 영월군 무릉도원면 백년계곡길 52,26201,river,glamping,couple,4,420,37.3694813,128.2734387,,
754,청량산 나무네 숲 캠핑,경상북도 봉화군 명호면 풍호리 62번지,경상북도 봉화군 명호면 청량로 763-81 (나무네숲),36255,lake,caravan,pet,16,1608,36.8448572,128.8673141,,
755,제암산자연휴양림 야영장,전라남도 보성군 웅치면 대산리 산 113-1,전라남도 보성군 웅치면 대산길 330,59450,mountain,camping,family,11,1109,34.6994712,126.9874331,,
756,하느제 캠핑장,전라남도 보성군 벌교읍 옥전리 1131-1번지,전라남도 보성군 벌교읍 옥전1길 480,59416,river,glamping,couple,11,1109,34.8440588,127.2325972,,
757,보성드림캠핑장,전라남도 보성군 득량면 비봉리 561-5번지,전라남도 보성군 득량면 공룡로 751,59467,sea,easycamping,kids,11,1109,34.7031307,127.1883857,,
758,동광농촌체험휴양마을,제주특별자치도 서귀포시 안덕면 동광리 976번지,제주특별자치도 서귀포시 안덕면 동광로 107,63523,lake,caravan,pet,18,1802,33.3066059,126.3374721,,
759,서귀포자연휴양림야영장,제주특별자치도 서귀포시 대포동 산 1-8번지,제주특별자치도 서귀포시 1100로 882,63554,mountain,camping,family,18,1802,33.3116678,126.4587607,,
760,중문진실캠핑장,제주특별자치도 서귀포시 중문동 2232번지,제주특별자치도 서귀포시 천제연로 132,63546,river,glamping,couple,18,1802,33.2526783,126.4184383,,
761,송백농원캠핑장,경상남도 양산시 상북면 외석리 314,경상남도 양산시 상북면 외석길 76-26,50582,sea,easycamping,kids,17,1709,35.4444078,129.0485288,,
762,대운산 자연휴양림 야영장,경상남도 양산시 용당동 산 66,경상남도 양산시 탑골길 208-124,50524,lake,caravan,pet,17,1709,35.4176785,129.2038402,,
763,파래소캠핑장,경상남도 양산시 원동면 선리 99,경상남도 양산시 원동면 청수골길 43-21,50500,mountain,camping,family,17,1709,35.5235762,129.009629,,
764,덕유산자연휴양림,전라북도 무주군 무풍면 삼거리 산 1-7번지,전라북도 무주군 무풍면 구천동로 530-62,55563,river,glamping,couple,9,905,35.9074907,127.814712,,
765,덕유대야영장,전라북도 무주군 설천면 삼공리 411-8번지,전라북도 무주군 설천면 구천동1로 159,55557,sea,easycamping,kids,9,905,35.9006559,127.7751251,,
766,덕유산700휠링캠프,전라북도 무주군 무풍면 삼거리 137번지,전라북도 무주군 무풍면 구천동로 289-55,55563,lake,caravan,pet,9,905,35.8771767,127.8221262,,
767,(주)밀모빨강치마,전라북도 무주군 적상면 사산리 산 235번지,전라북도 무주군 적상면 밀모길 79-30,55531,mountain,camping,family,9,905,35.9317161,127.6700633,,
768,반딧골캠핑장,전라북도 무주군 설천면 두길리 1384번지,전라북도 무주군 설천면 구천동로 2244,55554,river,glamping,couple,9,905,35.9851069,127.7870646,,
769,무주홀리데이파크,전라북도 무주군 안성면 공정리 1304번지,전라북도 무주군 안성면 칠연로 462-3,55539,sea,easycamping,kids,9,905,35.8392893,127.6853425,,
770,솔밭야영장,전라북도 무주군 안성면 죽천리 377-4번지,전라북도 무주군 안성면 원통사로 294,55542,lake,caravan,pet,9,905,35.8360841,127.6725251,,
771,해밀캠핑장,전라북도 무주군 안성면 덕산리 1318-3번지,전라북도 무주군 안성면 덕산로 112-7,55538,mountain,camping,family,9,905,35.8595889,127.6791527,,
772,무주구천동카라반,전라북도 무주군 설천면 삼공리 519-4,전라북도 무주군 설천면 백련사길 16,55557,river,glamping,couple,9,905,35.8953198,127.77592,,
773,더하루야영장,전라북도 무주군 무풍면 삼거리 350-3번지,전라북도 무주군 무풍면 구천동로 541,55563,sea,easycamping,kids,9,905,35.9014305,127.8120518,,
774,무주수목원캠핑장,전라북도 무주군 설천면 심곡리 476,전라북도 무주군 설천면 구천동로 1092-34,55555,mountain,camping,family,9,905,35.907931,127.7609145,,
775,무주 더 스위트 글램핑,전라북도 무주군 무풍면 삼거리 46-40번지,전라북도 무주군 무풍면 오두재로 96,55563,river,glamping,couple,9,905,35.8901458,127.8301322,,
776,무주 향로산 자연휴양림,전라북도 무주군 무주읍 오산리 산 106,전라북도 무주군 무주읍 무학로 153-36,55523,sea,easycamping,kids,9,905,36.0206601,127.6674274,,
777,솔내음 캠핑장,전라북도 무주군 안성면 공정리 197-1번지,전라북도 무주군 안성면 칠연로 504,55539,lake,caravan,pet,9,905,35.8394336,127.6888676,,
778,국립통고산 자연휴양림,경상북도 울진군 금강송면 쌍전리 산 150-1번지,경상북도 울진군 금강송면 불영계곡로 880,36300,mountain,camping,family,16,1618,36.9367048,129.1845097,,
779,도리돌 캠핑장,경기도 포천시 이동면 도평리 109-4,경기도 포천시 이동면 화동로 2464,11110,river,glamping,couple,3,302,38.0757063,127.4032977,,
780,산마루 캠핑장,경기도 포천시 이동면 도평리 582-10,경기도 포천시 이동면 금강로 6584-20,11110,sea,easycamping,kids,3,302,38.0757063,127.4032977,,
781,산정호수 가족글램핑,경기도 포천시 영북면 산정리 451,경기도 포천시 영북면 산정호수로 399,11103,mountain,camping,family,3,302,38.0664281,127.3155715,,
782,백운힐링 캠핑장,경기도 포천시 이동면 도평리 26,경기도 포천시 이동면 포화로 320-1,11110,river,glamping,couple,3,302,38.0757063,127.4032977,,
783,운악레저타운,경기도 포천시 화현면 화현리 509-4번지,경기도 포천시 화현면 화동로432번길 26,11123,sea,easycamping,kids,3,302,37.9048196,127.3104609,,
784,계곡과소나무 캠핑장,경기도 포천시 일동면 화대리 1-4번지,경기도 포천시 일동면 무리울길 299,11118,lake,caravan,pet,3,302,37.9514469,127.3598192,,
785,낭만가족 캠핑장,경기도 포천시 신북면 금동리 84-8,경기도 포천시 신북면 지동길 199-10,11137,mountain,camping,family,3,302,37.9309897,127.1218393,,
786,클럽 레스피아(포천 1호점),경기도 포천시 이동면 도평리 105-1,경기도 포천시 이동면 화동로 2440-34,11110,river,glamping,couple,3,302,38.0757063,127.4032977,,
787,제이스글램핑,부산광역시 기장군 일광읍 화전리 135,부산광역시 기장군 일광면 이천8길 132-20,46041,sea,easycamping,kids,13,1301,35.2772827,129.2341337,,
788,더무빙카라반캠핑,부산광역시 기장군 장안읍 월내리 552-15,부산광역시 기장군 장안읍 해맞이로 290,46033,lake,caravan,pet,13,1301,35.3229447,129.2704491,,
789,자연펜션캠핑장,강원도 영월군 김삿갓면 내리 616번지,강원도 영월군 김삿갓면 내리계곡로 1199,26247,mountain,camping,family,4,420,37.0779437,128.7082094,,
790,김삿갓휴게소 체험 캠핑장,강원도 영월군 김삿갓면 와석리 327-2,강원도 영월군 김삿갓면 영월동로 2138,26246,river,glamping,couple,4,420,37.1215492,128.6093633,,
791,영월캠프,강원도 영월군 무릉도원면 법흥리 143-3,강원도 영월군 무릉도원면 무릉법흥로 1208-56,26201,sea,easycamping,kids,4,420,37.3621213,128.277204,,
792,영월 스타 글램핑,강원도 영월군 무릉도원면 법흥리 99-1,강원도 영월군 무릉도원면 무릉법흥로 1078-12,26201,lake,caravan,pet,4,420,37.3527712,128.2796101,,
793,밤골야영장,강원도 영월군 무릉도원면 법흥리 39-4,강원도 영월군 무릉도원면 무릉법흥로 940,26201,mountain,camping,family,4,420,37.3408627,128.28019,,
794,더불어 사는터,강원도 영월군 무릉도원면 두산리 384번지,강원도 영월군 무릉도원면 두산길 199-8,26200,river,glamping,couple,4,420,37.3100703,128.1732804,,
795,첫물내기야영장,강원도 영월군 무릉도원면 법흥리 728-1번지,강원도 영월군 무릉도원면 무릉법흥로 516,26201,sea,easycamping,kids,4,420,37.3177639,128.2603914,,
796,내리금봉캠핑장,강원도 영월군 김삿갓면 내리 537번지,강원도 영월군 김삿갓면 내리계곡로 1146,26247,lake,caravan,pet,4,420,37.0779437,128.7082094,,
797,동강아름캠프,강원도 영월군 김삿갓면 외룡리 717,강원도 영월군 김삿갓면 영월동로 2435,26247,mountain,camping,family,4,420,37.115226,128.6411284,,
798,별빛캠핑장,강원도 영월군 무릉도원면 운학리 398,강원도 영월군 무릉도원면 양지마을길 38-11,26200,river,glamping,couple,4,420,37.345499,128.2028426,,
799,성동힐링센터 휴(休) 영월캠프,강원도 영월군 영월읍 문산리 483-1번지,강원도 영월군 영월읍 동강로 1488-23 (봉래초교문산분교),26221,sea,easycamping,kids,4,420,37.2689237,128.5261827,,
800,상우농장 야영장,강원도 영월군 무릉도원면 법흥리 72번지,강원도 영월군 무릉도원면 무릉법흥로 994-23,26201,lake,caravan,pet,4,420,37.3476659,128.2790956,,
801,자우림캠핑장,경기도 가평군 북면 적목리 153-4번지,경기도 가평군 북면 가화로 2697-125,12400,mountain,camping,family,3,301,37.9794527,127.4282149,,
802,칼봉산카라반캠핑장,경기도 가평군 가평읍 경반리 515번지,경기도 가평군 가평읍 경반안로 229 (칼봉산오토캠핑장),12415,river,glamping,couple,3,301,37.8272509,127.4824771,,
803,힐링피아 카라반 글램핑 풀 캠핑장,경기도 가평군 설악면 가일리 261-3,경기도 가평군 설악면 유명산길 61-75,12473,sea,easycamping,kids,3,301,37.5978248,127.494687,,
804,여우가달을사랑할때,경기도 가평군 가평읍 두밀리 590번지,경기도 가평군 가평읍 태봉두밀로596번길 78-12,12425,lake,caravan,pet,3,301,37.8121474,127.4313556,,
805,코끼리캠핑장,경기도 가평군 북면 화악리 1007번지,경기도 가평군 북면 화악산로 1217-2,12402,mountain,camping,family,3,301,37.9586821,127.5270799,,
806,힐링가평오토캠핑장,경기도 가평군 상면 덕현리 159-10,경기도 가평군 상면 청군로 316,12446,river,glamping,couple,3,301,37.7570751,127.4035348,,
807,명돈골캠핑장,경기도 가평군 북면 도대리 534번지,경기도 가평군 북면 논남기길 19-36 (명돈골레저유원지),12401,sea,easycamping,kids,3,301,37.9665061,127.4604122,,
808,또올래캠핑장,경기도 가평군 북면 적목리 119번지,경기도 가평군 북면 가화로 2745-70,12400,lake,caravan,pet,3,301,37.9794527,127.4282149,,
809,가평 워크샵 캠핑장 씨브이,경기도 가평군 가평읍 금대리 102-2번지,경기도 가평군 가평읍 북한강변로 274,12428,mountain,camping,family,3,301,37.7531849,127.5355585,,
810,무릉도원,경상남도 양산시 원동면 영포리 702-2,경상남도 양산시 원동면 어영길 170,50585,river,glamping,couple,17,1709,35.4261686,128.9335922,,
811,사지목 나무그늘,경상남도 양산시 원동면 내포리 573-2,경상남도 양산시 원동면 늘밭로 201,50585,sea,easycamping,kids,17,1709,35.3948554,128.9468986,,
812,천태산오토캠핑장,경상남도 양산시 원동면 영포리 926-1,경상남도 양산시 원동면 어영길 263-14,50585,lake,caravan,pet,17,1709,35.431928,128.9273141,,
813,원동자연휴양림,경상남도 양산시 원동면 내포리 산 170-1,경상남도 양산시 원동면 늘밭로 69 (원동자연휴양림),50585,mountain,camping,family,17,1709,35.3973475,128.9374408,,
814,캠핑라운드,경상남도 양산시 상북면 석계리 900-1,경상남도 양산시 상북면 구소석5길 20,50561,sea,easycamping,kids,17,1709,35.4029645,129.0635012,,
815,소석힐링캠핑장,경상남도 양산시 상북면 소석리 165-2,경상남도 양산시 상북면 공원로 77,50580,mountain,camping,family,17,1709,35.4046468,129.0513109,,
816,구수곡 자연휴양림,경상북도 울진군 북면 상당리 325,경상북도 울진군 북면 십이령로 2721,36308,river,glamping,couple,16,1618,37.0630924,129.2905992,,
817,왕피천 하늘담 야영장,경상북도 울진군 근남면 구산리 1290,경상북도 울진군 근남면 왕피천로 555-110,36336,sea,easycamping,kids,16,1618,36.9202253,129.3424568,,
818,씨앗골캠핑장,충청북도 청주시 상당구 낭성면 문박리 390,충청북도 청주시 상당구 낭성면 호정대신로 69-34,28193,river,glamping,couple,8,809,36.6294323,127.6065456,,
819,청주키즈캠핑장,충청북도 청주시 상당구 낭성면 갈산리 341-1번지,충청북도 청주시 상당구 낭성면 갈산1길 19,28192,lake,caravan,pet,8,809,36.6553519,127.5760596,,
820,수원산오토캠핑장,경기도 포천시 군내면 직두리 450번지 외 1필지(217번지),경기도 포천시 군내면 청군로2985번길 50-29,11155,mountain,camping,family,3,302,37.8627969,127.2392559,,
821,캠핑라운지,경기도 포천시 이동면 장암리 650-5,경기도 포천시 이동면 성장로1289번길 155-76,11111,river,glamping,couple,3,302,38.0473851,127.3693994,,
822,국망봉자연휴양림 캠핑장,경기도 포천시 이동면 장암리 산 74번지,경기도 포천시 이동면 늠바위길 207-28,11111,sea,easycamping,kids,3,302,38.0262086,127.3990485,,
823,꿈에그린 캠핑장,경기도 포천시 이동면 연곡리 475번지,경기도 포천시 이동면 화동로1870번길 31,11113,mountain,camping,family,3,302,38.0138949,127.3710075,,
824,새연리조트 포천점,경기도 포천시 이동면 도평리 521번지,경기도 포천시 이동면 금강로 6217-16,11110,river,glamping,couple,3,302,38.0757063,127.4032977,,
825,파피루스 캠핑장,경기도 포천시 영중면 성동리 75,경기도 포천시 영중면 성장로179번길 32,11127,sea,easycamping,kids,3,302,38.0268723,127.2821972,,
826,키즈글램핑GEO,경기도 포천시 이동면 도평리 585-6번지,경기도 포천시 이동면 금강로 6561,11110,river,glamping,couple,3,302,38.0757063,127.4032977,,
827,예손농원캠핑장,경기도 포천시 영북면 산정리 84-5번지,경기도 포천시 영북면 여우고개로 7,11103,sea,easycamping,kids,3,302,38.0612603,127.3271622,,
828,초원 숲속 야영장,부산광역시 기장군 정관읍 병산리 566,부산광역시 기장군 정관읍 병산1길 18 (병산골정원),46003,lake,caravan,pet,13,1301,35.3453693,129.1874576,,
829,장안캠프,부산광역시 기장군 장안읍 기룡리 448,부산광역시 기장군 장안읍 장안로 18,46032,mountain,camping,family,13,1301,35.3420668,129.253249,,
830,킨텍스캠핑장,경기도 고양시 일산서구 대화동 2720번지,경기도 고양시 일산서구 킨텍스로 217-25 (대화동),10390,river,glamping,couple,3,303,37.6829608,126.7549877,,
831,북한산농바위캠핑장,경기도 고양시 덕양구 지축동 127-1,경기도 고양시 덕양구 북한산로387번길 180 (지축동),10580,sea,easycamping,kids,3,303,37.6575047,126.922974,,
832,아트 캠핑 빌리지,충청남도 논산시 상월면 한천리 265번지,충청남도 논산시 상월면 한천길 15-11,320932,lake,caravan,pet,7,704,36.2636694,127.1517943,,
833,꿈꾸는 시계,충청남도 논산시 벌곡면 대덕리 491-1번지,충청남도 논산시 벌곡면 수락로443번길 49,33026,mountain,camping,family,7,704,36.1878969,127.2883053,,
834,나그네 캠핑장,충청남도 논산시 연산면 어은리 23-7,충청남도 논산시 연산면 선비로866번길 166-12,32909,river,glamping,couple,7,704,36.2666566,127.1886239,,
835,수락베이스캠프,충청남도 논산시 벌곡면 수락리 118-4,충청남도 논산시 벌곡면 수락계곡길 242,33028,sea,easycamping,kids,7,704,36.1442833,127.3049528,,
836,논산 탑정호 글램핑,충청남도 논산시 가야곡면 종연리 238-7번지,충청남도 논산시 가야곡면 탑정로 840,33017,lake,caravan,pet,7,704,36.1751771,127.1537628,,
837,너와나 야영장,강원도 영월군 무릉도원면 법흥리 285-4번지,강원도 영월군 무릉도원면 백년계곡길 193,26201,mountain,camping,family,4,420,37.3817122,128.2705528,,
838,산골캠핑장,강원도 영월군 무릉도원면 법흥리 293번지,강원도 영월군 무릉도원면 백년계곡길 158,26201,river,glamping,couple,4,420,37.378419,128.2716159,,
839,느티나무 쉼터,강원도 영월군 김삿갓면 내리 494-2번지,강원도 영월군 김삿갓면 내리계곡로 1106,26247,sea,easycamping,kids,4,420,37.0779437,128.7082094,,
840,별빛누리캠핑장,경기도 가평군 상면 덕현리 131-3,경기도 가평군 상면 청군로 253 (대하유원지가든),12446,lake,caravan,pet,3,301,37.7543007,127.4077889,,
841,올덴캠핑장,경기도 가평군 청평면 고성리 23번지,경기도 가평군 청평면 고재길 262-64,12456,mountain,camping,family,3,301,37.7019658,127.5168693,,
842,가평황토은글램핑,경기도 가평군 설악면 묵안리 577번지,경기도 가평군 설악면 장수로79번길 63-18,12474,river,glamping,couple,3,301,37.6082164,127.5104394,,
843,국립천관산자연휴양림,전라남도 장흥군 관산읍 농안리 산 72-1,전라남도 장흥군 관산읍 칠관로 842-1150,59351,river,glamping,couple,11,1117,34.5453983,126.9020852,,
844,유치자연휴양림,전라남도 장흥군 유치면 신월리 443번지,전라남도 장흥군 유치면 휴양림길 154 (유치자연휴양림),59301,sea,easycamping,kids,11,1117,34.7692599,126.8330445,,
845,농업회사법인(주)하늘빛수목정원,전라남도 장흥군 용산면 어산리 382-3,전라남도 장흥군 용산면 장흥대로 2746,59345,lake,caravan,pet,11,1117,34.634618,126.9047826,,
846,감악산캠핑숲,강원도 원주시 신림면 황둔리 1540-2,강원도 원주시 신림면 신림황둔로 714,26508,mountain,camping,family,4,408,37.2497217,128.139822,,
